STATE	LOCALITY_PID	POSTCODE	LOCALITY_NAME	LONGITUDE	LATITUDE
ACT	loc4123c621f9ad	2611	URIARRA VILLAGE	148.92461462	-35.29636428
ACT	locec3196d56b44	2620	THARWA	149.06339361	-35.51080954
ACT	locca284055ddcf	2904	GOWRIE	149.10904923	-35.41186353
ACT	loc76092f4a8a2d	2905	THEODORE	149.11970668	-35.44961528
ACT	locb52e3380119f	2615	STRATHNAIRN	148.98629381	-35.23267986
ACT	locdc5b101242c9	2611	WHITLAM	149.03593218	-35.27704162
ACT	loc76cc01c04bd2	2906	BANKS	149.09965803	-35.47192351
ACT	loc23eefe8d3c05	2611	WRIGHT	149.03360047	-35.31926306
ACT	loc85bc5ceec38c	2609	CANBERRA AIRPORT	149.19404739	-35.30445556
ACT	loc20cb3ad1b2bb	2620	OAKS ESTATE	149.22815526	-35.34004758
ACT	locf3b08e71192b	2620	KOWEN	149.31360869	-35.31079289
ACT	loc4453cee2a1d2	2602	DOWNER	149.14350778	-35.24384717
ACT	loc6b7d1480d0be	2611	DENMAN PROSPECT	149.02482052	-35.29640772
ACT	loc8be74d6ce0b7	2609	MAJURA	149.21347343	-35.27000537
ACT	loce80d5af0cc60	2911	MITCHELL	149.13636624	-35.21888644
ACT	loc7e0e418976bc	2614	MACQUARIE	149.06328346	-35.25111249
ACT	loca067483f913f	2905	CHISHOLM	149.12479923	-35.42201572
ACT	loc1ceb9296431e	2615	HOLT	149.01193133	-35.22439627
ACT	locc03757f857d8	2615	MELBA	149.05415306	-35.21007373
ACT	loc104c1f495a4a	2902	KAMBAH	149.05794304	-35.386207
ACT	loc6b5dbb714013	2605	HUGHES	149.09486847	-35.33265052
ACT	locd3982917aea6	2606	LYONS	149.07394665	-35.34054708
ACT	locf97341d6b4d6	2911	CRACE	149.10747946	-35.20286797
ACT	loc4b9ab4f61497	2607	TORRENS	149.08767146	-35.37202674
ACT	loc6acd8cb4042c	2913	NGUNNAWAL	149.11147283	-35.17277761
ACT	loc6d18decab1db	2603	RED HILL	149.12056841	-35.33342945
ACT	loccb36ca0afef4	2607	PEARCE	149.08333538	-35.36220691
ACT	loc499281085d2f	2905	BONYTHON	149.07824532	-35.43324423
ACT	loc8917aee2e00a	2913	NICHOLLS	149.09648613	-35.18714629
ACT	loc4dbefda34aea	2914	FORDE	149.14607419	-35.16821211
ACT	loc26d7ad45c249	2615	DUNLOP	149.01981534	-35.19399524
ACT	locdef188dd7508	2607	FARRER	149.1049327	-35.37669194
ACT	loc8f588bed0f99	2600	RUSSELL	149.15022424	-35.29798451
ACT	loc32435b9b0bed	2611	COTTER RIVER	148.83772007	-35.51665674
ACT	locc43d6024f1b5	2620	TENNENT	148.97835463	-35.57149677
ACT	locccfa418887a3	2620	BOOTH	149.04394902	-35.7206515
ACT	loc536018ebe64c	2620	RENDEZVOUS CREEK	148.94457534	-35.70946766
ACT	loc76b537d47ac6	2900	GREENWAY	149.06481468	-35.41584929
ACT	locf1a7d09b8303	2617	MCKELLAR	149.0770643	-35.21748083
ACT	locc5b840a6d99a	2615	FRASER	149.04534362	-35.19168921
ACT	locf591777ee457	2602	O'CONNOR	149.11560052	-35.25658641
ACT	locfd79aaa844e6	2604	KINGSTON	149.14659763	-35.31522145
ACT	loc3b6d93713dae	2615	HIGGINS	149.02724162	-35.23239274
ACT	loc2eff7d17cff4	2614	SCULLIN	149.03908018	-35.2345207
ACT	loc7db6d073b6c8	2906	CONDER	149.10426774	-35.45928673
ACT	loc8af26acb532d	2602	AINSLIE	149.14793004	-35.26216963
ACT	loc2011930fedea	2612	TURNER	149.1245409	-35.26886875
ACT	locfc019324c56a	2609	PIALLIGO	149.18567821	-35.31267848
ACT	loc9f4297137f66	2609	FYSHWICK	149.17085336	-35.32166854
ACT	locf0a98c62e8d7	2607	ISAACS	149.11558172	-35.36865444
ACT	loc44258c8939e7	2611	COREE	148.90836447	-35.28643049
ACT	loc8181f76984e5	2912	GUNGAHLIN	149.14495023	-35.17894501
ACT	loc4c97ea51ef8e	2607	MAWSON	149.09854582	-35.36333314
ACT	loc61a9abd62c81	2611	DUFFY	149.03190169	-35.3345618
ACT	loc0864be1bd999	2617	EVATT	149.06897063	-35.21180876
ACT	locf94248966b6c	2614	ARANDA	149.0804241	-35.25804501
ACT	loc6613e6eacec7	2615	MACGREGOR	149.01101494	-35.20979113
ACT	locdb0d3d9b68c2	2914	HARRISON	149.15614389	-35.19907618
ACT	loc7ff066c49e42	2615	MACNAMARA	148.97707034	-35.21907022
ACT	loc422f986f5580	2615	LATHAM	149.03164879	-35.21637392
ACT	loc4d979cf6e3c5	2603	GRIFFITH	149.13713991	-35.32532304
ACT	locd1f3e8552073	2914	MONCRIEFF	149.11631149	-35.15880774
ACT	locfb58100d47ae	2905	CALWELL	149.10712254	-35.44039856
ACT	loccb486d174769	2617	BRUCE	149.09163692	-35.24534256
ACT	loc4c5c9bbd8300	2611	WARAMANGA	149.06213604	-35.35288569
ACT	locb45cb4e23fdd	2914	THROSBY	149.16176998	-35.18894697
ACT	locf0cacaa1119e	2914	AMAROO	149.12802848	-35.16957255
ACT	loc99939bd2b70b	2615	FLOREY	149.05017445	-35.22577873
ACT	loc9214a5c48267	2614	HAWKER	149.03667585	-35.24701536
ACT	loc3c05059f862a	2600	BARTON	149.13909455	-35.30679814
ACT	loc5450e47bba5c	2600	JERRABOMBERRA	149.15879183	-35.36591446
ACT	loc243c990388a1	2900	TUGGERANONG	149.10293157	-35.48209357
ACT	loc26228ac5fc51	2611	COOMBS	149.04244446	-35.31674762
ACT	loc332265c0f026	2617	LAWSON	149.08823875	-35.22499236
ACT	loc04da2b1c5df3	2611	CHAPMAN	149.03742974	-35.35619791
ACT	loc76530ec5e234	2606	PHILLIP	149.09091846	-35.34698705
ACT	loc084a7a1ebc7c	2603	FORREST	149.12483413	-35.31720526
ACT	loceaaa593ac6d0	2617	KALEEN	149.1091855	-35.22772584
ACT	loc9e764eaf2f8a	2618	HALL	149.06679367	-35.17019828
ACT	loc2491e3a476a6	2912	GUNGAHLIN	149.13619577	-35.18673222
ACT	loc1c54ec83b5f8	2913	PALMERSTON	149.11942486	-35.19445184
ACT	loca2a615764089	2602	WATSON	149.15941253	-35.23482094
ACT	locd7100d0bd0d9	2611	FISHER	149.05690519	-35.36122654
ACT	loc9ced31cf83bc	2611	STROMLO	148.99032436	-35.31402128
ACT	loc727faf3216b7	2913	TAYLOR	149.107235	-35.14679102
ACT	loc9a9996a0edaf	2620	PADDYS RIVER	148.96760366	-35.44395594
ACT	loc5a74721a608f	2611	STIRLING	149.04933292	-35.34963704
ACT	loc88b5fdc468e0	2600	YARRALUMLA	149.09887506	-35.30252787
ACT	loc6f02f098e82d	2601	ACTON	149.11294842	-35.2851906
ACT	loc889de2a5f611	2609	SYMONSTON	149.1600167	-35.348892
ACT	locf8f046cc1ca6	2612	CAMPBELL	149.15821492	-35.29135449
ACT	loc307aecd0ead2	2614	WEETANGERA	149.04974082	-35.25009843
ACT	loc30ca19345194	2903	WANNIASSA	149.09079952	-35.3977255
ACT	locf7df36fc3011	2904	MONASH	149.09064239	-35.41575108
ACT	locef34e4cfad08	2905	ISABELLA PLAINS	149.09395909	-35.42800532
ACT	loc352afb4acd65	2604	NARRABUNDAH	149.14924366	-35.33568517
ACT	loc70656c3c97c8	2611	HOLDER	149.04616265	-35.33446236
ACT	loc1c74a8b11582	2615	FLYNN	149.04414633	-35.20576187
ACT	locebceb5519da7	2914	BONNER	149.1429721	-35.15596302
ACT	loc33842a57b6f5	2601	CITY	149.12919442	-35.28125526
ACT	loc1f257ff2a115	2605	CURTIN	149.07737462	-35.32462314
ACT	loc12d17ebba6af	2615	BELCONNEN	149.02106499	-35.24314735
ACT	loc0a721e1b7131	2914	JACKA	149.13045625	-35.14951078
ACT	loc25c63e2f014a	2605	GARRAN	149.10847187	-35.34146072
ACT	loc5c64d9927907	2606	O'MALLEY	149.11282806	-35.35258787
ACT	loc75bfec762843	2600	DEAKIN	149.10317139	-35.31918115
ACT	locffc19e1eaa45	2602	HACKETT	149.16348235	-35.24953619
ACT	locba032712915d	2615	CHARNWOOD	149.03413643	-35.20017407
ACT	loc96bd19966598	2905	GILMORE	149.13824437	-35.41506417
ACT	loca2506d3db917	2611	WESTON	149.05875084	-35.3324878
ACT	loc4ef606e2b7dc	2913	CASEY	149.09472422	-35.16698387
ACT	loc1f697be4054a	2913	FRANKLIN	149.14329936	-35.1994473
ACT	loc4d7ecce0601b	2611	WESTON CREEK	149.07176458	-35.31199444
ACT	locb69fa0a9f0f8	2612	BRADDON	149.13572608	-35.27081114
ACT	loc006d05c87d16	2602	LYNEHAM	149.13068522	-35.23973667
ACT	locbe99ca15a529	2617	BELCONNEN	149.06767884	-35.23549696
ACT	loc9918d6329a8c	2906	GORDON	149.08503809	-35.45666692
ACT	loc07b50843638a	2602	DICKSON	149.14165995	-35.25277009
ACT	loc2d478a78b85c	2600	PARKES	149.13374555	-35.29827414
ACT	loc4f0d478ab62b	2903	OXLEY	149.07860242	-35.40949895
ACT	locc6d1341f9b60	2617	GIRALANG	149.09593268	-35.21086515
ACT	loc0dc356399bc7	2614	PAGE	149.04994254	-35.2385364
ACT	loc38035c6f5969	2611	RIVETT	149.03792345	-35.34707288
ACT	loceae77f35464f	2600	CAPITAL HILL	149.12444045	-35.30816646
ACT	loc21a5aaa3c530	2904	MACARTHUR	149.13160273	-35.4051557
ACT	loc7145338fb425	2904	FADDEN	149.11756122	-35.40188515
ACT	loc0c59375a43a9	2606	CHIFLEY	149.07684386	-35.35336462
ACT	locdb80130c8c9a	2615	SPENCE	149.0643819	-35.19872474
ACT	loc9f73ed1cc745	2620	HUME	149.16574264	-35.38548535
ACT	locad3be5bd3883	2601	CANBERRA CENTRAL	149.10728221	-35.26960496
ACT	loca5dacbe1db50	2620	BEARD	149.21045705	-35.3417134
ACT	locbfa28bdaa9d6	2617	MOLONGLO VALLEY	149.0600526	-35.29215701
ACT	500223393	2617	BELCONNEN	149.00554509	-35.25501614
ACT	locd9acdbc66ea4	2614	COOK	149.06635062	-35.26009246
ACT	locec9c7e4ab95b	2905	RICHARDSON	149.11384419	-35.42789882
ACT	loc537c3f114213	2612	REID	149.1411897	-35.28259189
NSW	loc3dae53eb747f	2168	HECKENBERG	150.88981396	-33.90827048
NSW	loca0ae4f890338	2880	MILPARINKA	141.57198345	-29.89348889
NSW	locb11c6a7efcd0	2754	THE SLOPES	150.7059975	-33.53202262
NSW	locb3319b538f30	2551	BOYDTOWN	149.87331145	-37.10707639
NSW	loc8c852d1bde4b	2105	LOVETT BAY	151.2804734	-33.63133024
NSW	loca3efde106bdb	2577	WERAI	150.36539345	-34.61101267
NSW	loca50e32cfe7a8	2787	OBERON	149.84954129	-33.69128448
NSW	loca53ca9714d96	2287	FLETCHER	151.64119129	-32.87175883
NSW	loca647a4aade8e	2120	THORNLEIGH	151.08201354	-33.72369728
NSW	loca690f07a8444	2460	COUTTS CROSSING	152.89572536	-29.85804938
NSW	loca69ebc0d2e59	2449	GIRRALONG	152.64312619	-30.56268934
NSW	loca72dd136b1fe	2478	SKENNARS HEAD	153.5894745	-28.83290505
NSW	loca73b2c3ec2c6	2388	PILLIGA	148.80032727	-30.38393276
NSW	loc6f49793fd25a	2480	LISMORE HEIGHTS	153.30074483	-28.80299846
NSW	loc7076cb94f20c	2570	ORANGEVILLE	150.59484944	-34.02979761
NSW	loc70b518ffa0fc	2580	ROSLYN	149.6373327	-34.49717322
NSW	loc71c031b4eef7	2257	ST HUBERTS ISLAND	151.34437862	-33.49203877
NSW	loc7515c3d939f0	2259	MOONEE	151.62122128	-33.1712386
NSW	loc75d2c85cb164	2529	OAK FLATS	150.82192288	-34.56233136
NSW	locae451a4e9fcf	2570	BROWNLOW HILL	150.64441426	-34.04216147
NSW	locaee409ddf267	2200	BANKSTOWN AERODROME	150.98866082	-33.92260849
NSW	locaf2c2b35b954	2646	SAVERNAKE	146.01784107	-35.74500089
NSW	locd46926489609	2622	KRAWARREE	149.61335436	-35.76176381
NSW	locd50518ec9bcd	2480	NORTH LISMORE	153.28174163	-28.78713168
NSW	locd50c3b2bd82b	2460	WOMBAT CREEK	152.75739304	-29.51595938
NSW	locd51aabc51628	2340	DUNGOWAN	151.16263169	-31.2278872
NSW	locd53dc2c875ec	2758	KURRAJONG	150.70215243	-33.50368985
NSW	locf0a2ba0399ff	2480	STONY CHUTE	153.16210784	-28.58315453
NSW	locf3f7473c47f5	2360	GUM FLAT	150.92581413	-29.79304529
NSW	locf49f8d0219eb	2568	MENANGLE	150.721331	-34.13749231
NSW	loc7e808345aa40	2526	KEMBLA GRANGE	150.79839947	-34.46772247
NSW	loc7f5de7820bd4	2483	OCEAN SHORES	153.53407143	-28.50988341
NSW	locb37ac6914819	2357	DANDRY	149.40314487	-31.00808828
NSW	locb376f4a11b1c	2711	MAUDE	144.19007507	-34.48972688
NSW	locddd3db7bb84e	2164	WETHERILL PARK	150.89923668	-33.84269732
NSW	locb2274527d863	2446	LOWER PAPPINBARRA	152.58923134	-31.41703406
NSW	locb23018b2b79a	2372	RIVERTREE	152.26595346	-28.65721191
NSW	locb2683140c1e4	2898	LORD HOWE ISLAND	159.07684025	-31.55332745
NSW	loc9e9b3923755c	2290	BENNETTS GREEN	151.69820309	-32.99959508
NSW	loc76dbc4819074	2758	KURRAJONG HILLS	150.65549236	-33.52259599
NSW	loc7717228c2c4b	2337	STEWARTS BROOK	151.32229229	-32.03031868
NSW	loc774036677172	2446	HUNTINGDON	152.65361587	-31.47066778
NSW	loc9af3e6c26f84	2830	WAMBANGALANG	148.50084275	-32.56140598
NSW	loc9af780465a42	2480	MAROM CREEK	153.36344864	-28.91705387
NSW	loc9b09590f71c7	2506	BERKELEY	150.84320291	-34.4786434
NSW	loc9b2eec1d0948	2087	FORESTVILLE	151.21108607	-33.75998849
NSW	loc9bf72f8b2290	2440	CLYBUCCA	152.94442208	-30.93651149
NSW	loc9c1cc40e274f	2259	CRANGAN BAY	151.59515875	-33.16841565
NSW	locbde2f64423a6	2262	BUDGEWOI	151.55989843	-33.23817186
NSW	locafb765cbd3da	2750	SOUTH PENRITH	150.69882159	-33.77349512
NSW	loc16265053cf7e	2550	NELSON	149.9582882	-36.66769417
NSW	loc1646755e7567	2343	BLACKVILLE	150.25281692	-31.62992807
NSW	loc16b45c5915a1	2315	CORLETTE	152.11410181	-32.72418644
NSW	loc1723091e1e2c	2830	BALLIMORE	148.90108017	-32.17728183
NSW	loc1767f8f3c12f	2830	TOONGI	148.57751062	-32.48017829
NSW	loc1773bd5ec318	2460	CHAMBIGNE	152.74439437	-29.76140065
NSW	loc1791e0bc73bb	2340	SOMERTON	150.62709486	-30.93908104
NSW	loccb3b777454c5	2121	NORTH EPPING	151.0941051	-33.7586596
NSW	loca3fc6d17e02a	2177	BONNYRIGG HEIGHTS	150.86993183	-33.89119479
NSW	locdaa1b69ae3de	2168	BUSBY	150.88068759	-33.9112268
NSW	loc1ab2dba0fc23	2795	TANNAS MOUNT	149.6409489	-33.61755898
NSW	loc1ab93fcd558a	2429	TIPPERARY	152.15832944	-32.05749088
NSW	loc1ad25c8ebb8f	2820	BAKERS SWAMP	148.93328589	-32.77151942
NSW	loc1b4996ed60ba	2632	COOLUMBOOKA	149.33913307	-36.91929372
NSW	loc1b7b4e2408b3	2850	GALAMBINE	149.51932681	-32.44880674
NSW	loc1c90722ea7f9	2315	NELSON BAY	152.13910062	-32.73547335
NSW	loc1cc64febd1c7	2850	GRATTAI	149.49394642	-32.66866719
NSW	loca7c3cc1355d8	2350	DANGARSLEIGH	151.6846973	-30.62894557
NSW	loca849af10776c	2168	HINCHINBROOK	150.86346007	-33.91817649
NSW	loccd51b7d11410	2540	CALLALA BAY	150.71960034	-34.99076745
NSW	loccde3a35d8861	2300	NEWCASTLE EAST	151.78985359	-32.92662776
NSW	loccdf20f44ddf1	2580	TARALGA	149.78736699	-34.4003231
NSW	locce284ca53ab5	2077	WAITARA	151.10596136	-33.70925793
NSW	locce3587813ac3	2390	KAPUTAR	150.13377059	-30.30475999
NSW	locceed067c2b85	2324	TEA GARDENS	152.15715545	-32.61895121
NSW	loccf192cf69fab	2077	HORNSBY	151.09590751	-33.69798226
NSW	loc766fade40b34	2460	SHANNONDALE	152.83328639	-29.80116827
NSW	loc483cbd6a339e	2529	FLINDERS	150.84617013	-34.5807088
NSW	locc6b3dea0ab73	2460	RUSHFORTH	152.85720371	-29.74287005
NSW	locc6ecf753b79e	2820	STUART TOWN	149.0468774	-32.83229882
NSW	loc52b56e59c73d	2264	SILVERWATER	151.55816573	-33.10310591
NSW	loc53b1b7a9819a	2028	DOUBLE BAY	151.24382505	-33.87777668
NSW	loc5478800bd6aa	2131	ASHFIELD	151.12617753	-33.88871498
NSW	loc54f1d14fba10	2550	COOPERS GULLY	149.79785085	-36.64752614
NSW	loc01d47ed99928	2464	ANGOURIE	153.35614854	-29.47300289
NSW	loc01ebfaaed97d	2330	BULGA	150.98289488	-32.63854729
NSW	loc031ff1af63b8	2280	BELMONT NORTH	151.67225315	-33.01698829
NSW	loc2a391e235474	2786	MOUNT VICTORIA	150.24732692	-33.57630063
NSW	loc2af019885f37	2550	NUMBUGGA	149.7194604	-36.62786222
NSW	loc2af6b0f22f61	2360	COPETON	150.92154902	-29.8753699
NSW	loc2b7527b21815	2840	HUNGERFORD	144.61578171	-29.1708464
NSW	locb2bff3e8aa6e	2456	SAFETY BEACH	153.19417212	-30.09295082
NSW	locb30dbc00d661	2795	O'CONNELL	149.73764315	-33.55442288
NSW	locb436e85e9987	2720	LACMALAC	148.31591547	-35.31014197
NSW	locd3822d4836d7	2283	BLACKALLS PARK	151.57974701	-32.99891478
NSW	locd4be8f7a35a3	2681	YENDA	146.22544505	-34.22650231
NSW	locd5f369ba88a9	2581	CULLERIN	149.35639147	-34.780868
NSW	locda922881cbef	2453	CASCADE	152.78379012	-30.22838309
NSW	locdb12d236a23c	2844	DUNEDOO	149.38278516	-32.01982677
NSW	locdc149a0f2b20	2795	ABERCROMBIE	149.55643942	-33.38996292
NSW	locdc4368f73701	2550	BUCKAJO	149.7606975	-36.69278161
NSW	locdc8df929e9de	2100	BEACON HILL	151.25841668	-33.75240719
NSW	locdcccf9bc92c1	2226	COMO	151.06431619	-34.0020911
NSW	locdd1bf725ba29	2399	BINIGUY	150.14491934	-29.57759523
NSW	locdd2b578b5ca9	2527	CALDERWOOD	150.72917546	-34.55932215
NSW	loc5d4abb06f103	2711	KERI KERI	143.98366046	-34.77430474
NSW	loc09ed4fd4570c	2113	MACQUARIE PARK	151.12700332	-33.78019981
NSW	loc0a254e861042	2170	CASULA	150.89938781	-33.95248703
NSW	loc0bb5d1da1d8e	2446	BROMBIN	152.63286666	-31.45708351
NSW	loc0be23ff6d037	2446	FRAZERS CREEK	152.61658661	-31.39934255
NSW	loc0c4b1daabf49	2372	CARROLLS CREEK	152.09250332	-28.83288961
NSW	loc0c85e574b42d	2453	NORTH DORRIGO	152.68077685	-30.26705078
NSW	loc0d38e11813ea	2441	TAMBAN	152.81627739	-30.88696364
NSW	locbf7ca10fc40b	2290	MOUNT HUTTON	151.67067373	-32.97889264
NSW	locbfc11a574b29	2480	NIGHTCAP	153.29362709	-28.55193808
NSW	loc9ca43f478af5	2330	GLENNIES CREEK	151.10883255	-32.45567996
NSW	locb5fe1f198ccf	2203	DULWICH HILL	151.1395467	-33.90406995
NSW	locb71802dd9fee	2630	ROCK FLAT	149.20973065	-36.38782963
NSW	loc7f9e1f3d47db	2820	MUMBIL	149.07822048	-32.71886136
NSW	locf9701d0fea6c	2795	THE LAGOON	149.62228569	-33.54329519
NSW	locd0e75b0dab89	2212	REVESBY HEIGHTS	151.01943529	-33.96981159
NSW	locd118bf88da75	2487	KINGS FOREST	153.54901181	-28.29935946
NSW	loc2c93c91b108b	2795	MILLAH MURRAH	149.61157987	-33.18001302
NSW	loc2cec5505949a	2259	LEMON TREE	151.37144304	-33.133913
NSW	loc2e98fc933817	2176	EDENSOR PARK	150.87774111	-33.87972125
NSW	loc6383793dff0f	2210	LUGARNO	151.04485669	-33.98335669
NSW	loc249815506cfa	2642	BURRUMBUTTOCK	146.79470812	-35.83007875
NSW	loc24cf62dd6751	2701	BERRY JERRY	147.24651244	-34.70682415
NSW	loc24ffc42f7ce6	2782	WENTWORTH FALLS	150.37971804	-33.72166479
NSW	loc250bca46973d	2540	WOLLUMBOOLA	150.72748128	-34.95899726
NSW	loc25976f32b6c9	2790	CLARENCE	150.2197702	-33.47401965
NSW	loc25b4bae38b3e	2281	CATHERINE HILL BAY	151.62487663	-33.14740627
NSW	loc25e255df3f79	2620	GOOGONG	149.22763541	-35.44469973
NSW	loc26342e571177	2587	WOMBAT	148.23743382	-34.4251812
NSW	loc263c5404cbb9	2358	MIHI	151.69421424	-30.71829867
NSW	loc268e711ecfd5	2281	MURRAYS BEACH	151.62307008	-33.11863738
NSW	loc26b46b1efe8f	2357	ROCKY GLEN	149.53476475	-31.08470134
NSW	loc26cb59d091a8	2711	CARRATHOOL	145.41908086	-34.42960456
NSW	loc5bcadfb5ac4c	2344	DURI	150.8186477	-31.2314061
NSW	loc69b0db54a32e	2463	TOWNSEND	153.22069212	-29.46622369
NSW	loc6238259defa9	2320	ABERGLASSLYN	151.53396183	-32.69488411
NSW	loc637b47e75ebe	2787	TARANA	149.88447293	-33.54807671
NSW	loc63f7217fd88b	2440	FREDERICKTON	152.86042449	-31.02580752
NSW	loc642666b816be	2295	FERN BAY	151.81318065	-32.86425728
NSW	loc64fad4197f77	2537	MORUYA HEADS	150.1400805	-35.92629792
NSW	loc65608697f804	2795	GOWAN	149.3526558	-33.14985166
NSW	loc65a9cb15b8d1	2546	KIANGA	150.07560927	-36.18373975
NSW	loc66107495d755	2046	CHISWICK	151.13850037	-33.8499193
NSW	loca382ce9decfb	2710	WANDOOK	145.02970588	-35.42338603
NSW	loc40e90188fa28	2484	FARRANTS HILL	153.48548688	-28.31851514
NSW	loc4f9e83310927	2536	CATALINA	150.18528338	-35.73026241
NSW	loce2805b5edfc4	2800	CANOBOLAS	149.00408267	-33.35529709
NSW	locc0764149b600	2115	ERMINGTON	151.06009883	-33.81125156
NSW	loc40a1d47c822d	2360	BUKKULLA	151.11230002	-29.51252697
NSW	loc40d976b1c6d6	2089	KURRABA POINT	151.22316001	-33.84186552
NSW	loc6e7c8fc9d0cf	2535	COOLANGATTA	150.71509001	-34.85344175
NSW	loc6e9b93d24561	2477	BAGOTVILLE	153.41277774	-28.97549211
NSW	loc6e9bcee42ce2	2480	BOAT HARBOUR	153.36763901	-28.77855148
NSW	loc6ee0a61ea4ee	2701	COOLAMON	147.1926247	-34.81500959
NSW	loc6eebcf8ad25f	2560	GILEAD	150.77838347	-34.13960026
NSW	loc6f8d1614feb7	2323	BRUNKERVILLE	151.48669924	-32.95353062
NSW	loc6fe8c4e8ebdf	2680	WIDGELLI	146.15184108	-34.35788603
NSW	loc70159216e9d9	2738	MONAK	142.290686	-34.2978282
NSW	loc701a3d2ec24c	2671	WYALONG	147.30012701	-33.9176713
NSW	loc70fb2e6593ff	2871	FAIRHOLME	147.37580602	-33.29881028
NSW	loc71afe1a0b27b	2328	BUREEN	150.735589	-32.46911618
NSW	loca55bd7bc07e2	2550	BEMBOKA	149.56349207	-36.60523094
NSW	loca69e4cac9c27	2148	ARNDELL PARK	150.88308373	-33.79049444
NSW	locc28a9c36431f	2762	SCHOFIELDS	150.86709276	-33.70273895
NSW	loc841f473672f1	2304	MAYFIELD EAST	151.74992839	-32.90023094
NSW	loc9f60930cb095	2261	TOOWOON BAY	151.49761892	-33.36267615
NSW	loc9f6e29ba3f26	2840	ENNGONIA	145.94197376	-29.25375937
NSW	loc9feef9e565d0	2540	MYOLA	150.6763421	-35.02269783
NSW	loca0217d4d0af8	2868	YEOVAL	148.60450446	-32.76593864
NSW	loca02d83aa36e1	2463	THE SANDON	153.29482057	-29.66521046
NSW	locc70463b60b1b	2839	GONGOLGON	146.87128818	-30.45327096
NSW	locc71c3763f9c3	2539	CROOBYAR	150.39428731	-35.32146678
NSW	locc72511b7a697	2328	MANGOOLA	150.72884091	-32.31821217
NSW	locc7564e4ad96d	2404	KEERA	150.75787496	-30.03882281
NSW	locc7627b153d98	2620	ROYALLA	149.16898835	-35.49251401
NSW	locc853746338e7	2629	ADAMINABY	148.78487252	-36.01164403
NSW	locc89e726a36db	2265	COORANBONG	151.46391251	-33.05006822
NSW	locd617994641d5	2754	NORTH RICHMOND	150.72129522	-33.56779836
NSW	loc9b31f1403b78	2727	COOLAC	148.21188895	-34.91040845
NSW	locb7c4425a754f	2227	GYMEA	151.08565852	-34.03442414
NSW	locb094042a0875	2622	BORO	149.69646233	-35.20198616
NSW	loc172f8478104b	2559	CLAYMORE	150.81093199	-34.04639023
NSW	loc6de2fec07ce6	2113	NORTH RYDE	151.12950382	-33.7966646
NSW	loc23edf552fc5a	2538	MORTON	150.31066711	-35.41297425
NSW	loc28d69acbb4ac	2731	THYRA	144.74399662	-35.8448582
NSW	loc91adfb5090da	2710	MATHOURA	144.86233488	-35.80902154
NSW	loc9f9edf963b87	2165	FAIRFIELD	150.95239936	-33.87125573
NSW	loca332ec6d538d	2317	PORT STEPHENS	152.05769647	-32.70131439
NSW	loc3f5989095b0a	2722	RENO	148.04195136	-35.00458506
NSW	loc4034d30b36af	2317	SALAMANDER BAY	152.09001537	-32.7330342
NSW	loc40499ef8ce24	2470	BABYL CREEK	152.79310238	-28.72397096
NSW	loc406a8cdb0ec4	2429	FIREFLY	152.22767231	-32.08748277
NSW	loc4162181a36ae	2337	SEGENHOE	150.92564875	-32.07219944
NSW	loc4178cd1c0955	2481	EWINGSDALE	153.54903083	-28.63432509
NSW	loc41a8cee62b20	2250	NIAGARA PARK	151.3514689	-33.37753191
NSW	loc43353f7420e0	2224	SYLVANIA WATERS	151.11026242	-34.01779931
NSW	loc4937408869d0	2083	BROOKLYN	151.21422045	-33.58214811
NSW	loc46592a69d095	2732	THULE	144.40607387	-35.68491713
NSW	loc49c54cd2b15a	2765	BERKSHIRE PARK	150.77521059	-33.67279915
NSW	loc4b5ddfd386f7	2627	MOONBAH	148.56005094	-36.51037918
NSW	loc1edb3c47e8b6	2224	SYLVANIA	151.10183481	-34.01215365
NSW	loc1ede677690c3	2423	WANG WAUK	152.28149856	-32.14262006
NSW	loc02b6f951e9b4	2777	WINMALEE	150.61218863	-33.67692982
NSW	loc12278fbf274f	2650	SPRINGVALE	147.33177651	-35.17397018
NSW	loc6e422a3dd7a9	2283	LAKE MACQUARIE	151.59100548	-33.07648735
NSW	locb27b1d394166	2869	PEAK HILL	148.0501951	-32.71162805
NSW	loc80093f2cf6c0	2577	NEW BERRIMA	150.33407335	-34.50843059
NSW	loc811b21f4cd8e	2675	HILLSTON	145.43655332	-33.43889695
NSW	loc813d510dfd9e	2594	MONTEAGLE	148.34482513	-34.16510869
NSW	loc84a39ac59223	2120	PENNANT HILLS	151.07412883	-33.73844939
NSW	loc8787c6db0193	2582	YASS RIVER	149.12184805	-34.92461318
NSW	loc87ec44c3480f	2540	FALLS CREEK	150.59338455	-34.9977921
NSW	loc87f287a4a62a	2745	LUDDENHAM	150.71008851	-33.86326765
NSW	loc8ab8142b1cc6	2474	EDEN CREEK	152.90741526	-28.58506616
NSW	loc88fda1b0fa90	2429	DYERS CROSSING	152.30760091	-32.08215899
NSW	loc22bdf7a2d0d4	2652	LANDERVALE	146.70942442	-34.53719544
NSW	loc4c857c5cac7a	2347	BARRABA	150.54961537	-30.3604627
NSW	loc4dbcd68992b9	2753	RICHMOND	150.75761386	-33.60484716
NSW	loc505caada930b	2870	PARKES	148.27297615	-33.10029793
NSW	loc5443cc06e80b	2479	MCLEODS SHOOT	153.55419995	-28.65949712
NSW	loc5294707b3ff3	2360	MOUNT RUSSELL	150.93860884	-29.65909565
NSW	loc543b8d7f4c1a	2711	BOOLIGAL	144.74469693	-33.71321535
NSW	loc55c00fc1f7c7	2170	PRESTONS	150.87209308	-33.94171845
NSW	loc563b3921df95	2321	HINTON	151.66647035	-32.72191005
NSW	loce412a86cbee8	2577	ROBERTSON	150.60054655	-34.60902539
NSW	loc8d77ccfbbca8	2291	MEREWETHER	151.74341068	-32.9482366
NSW	loc6faabb766a17	2878	IVANHOE	144.14020971	-32.69929038
NSW	loc6fe6167371d1	2749	CASTLEREAGH	150.67903459	-33.68750898
NSW	loc71ae9040d461	2220	HURSTVILLE	151.10091789	-33.9617042
NSW	loc72b664999d25	2170	LIVERPOOL	150.91586846	-33.92362346
NSW	loc73a12bffedc6	2148	BLACKTOWN	150.90349382	-33.77377464
NSW	loc74a454cb539a	2722	NANGUS	147.92927813	-35.02163393
NSW	loc7758d667d14d	2447	SCOTTS HEAD	152.98633688	-30.70818562
NSW	loc49a1f96416ca	2320	MAITLAND VALE	151.55384069	-32.67522154
NSW	loc49efe28d553f	2756	SACKVILLE NORTH	150.90508085	-33.48523229
NSW	loc4a263186bab6	2756	CORNWALLIS	150.80032128	-33.5865552
NSW	loc4a2eeb23ab4a	2311	HALTON	151.53838982	-32.29884233
NSW	loc4a3a81669c6f	2714	PINE LODGE	145.43156803	-35.66135256
NSW	loc4a7538b820a1	2795	UPPER TURON	149.77536348	-33.11315382
NSW	loc4a833d4898a4	2440	TOOROOKA	152.54592135	-30.89918439
NSW	loc4a9720abc5eb	2283	ARCADIA VALE	151.57691318	-33.05981776
NSW	loc4a9be5f70d01	2850	STONY CREEK	149.72993407	-32.47519854
NSW	loc4aa94a6f0be7	2650	GALORE	146.82769171	-34.9859086
NSW	loc4aef51f62ae2	2464	YAMBA	153.34062881	-29.43320872
NSW	loc4b2ca577586c	2844	COBBORA	149.23686215	-32.07260909
NSW	loc7d5a85665691	2560	ST HELENS PARK	150.81368307	-34.10474796
NSW	loc7d80250fd566	2443	CAMDEN HEAD	152.83108351	-31.64364734
NSW	loca810dcae2f3a	2663	JUNEE	147.5805335	-34.86516527
NSW	loc6dbf58b9fa38	2575	MITTAGONG	150.48683207	-34.46168467
NSW	loc1e8d3c80d626	2700	EUROLEY	146.30212209	-34.71003794
NSW	loc50698397ce3a	2652	HUMULA	147.75229473	-35.48124764
NSW	loc50946636e469	2480	THE CHANNON	153.27746661	-28.67593699
NSW	loc51545ed11190	2257	EMPIRE BAY	151.36950071	-33.5014218
NSW	loc547ee044fcfd	2580	BANNISTER	149.49127686	-34.60635294
NSW	locf955b55096df	2840	WANAARING	143.88290522	-29.58248964
NSW	locf30973c9d0ec	2479	COOPERS SHOOT	153.56916303	-28.69157312
NSW	locf5af886a6346	2430	DIAMOND BEACH	152.53631325	-32.02812551
NSW	locf32337801b24	2584	BINALONG	148.66070082	-34.67191511
NSW	locf394265f9c51	2484	UKI	153.32823089	-28.4145564
NSW	locf406bd0c0e07	2831	MERRYGOEN	149.28427609	-31.80703632
NSW	locf52960e4c768	2775	GUNDERMAN	151.06143861	-33.38922914
NSW	locf60f902ea7e6	2441	TELEGRAPH POINT	152.78371517	-31.32899893
NSW	locf65c1c9929c3	2423	BULAHDELAH	152.17877654	-32.3842227
NSW	locf706ae991621	2705	WHITTON	146.14160521	-34.54756949
NSW	locf87ba97dedb9	2233	HEATHCOTE	150.97965413	-34.10471501
NSW	locda965324f635	2460	FINE FLOWER	152.65513978	-29.38459722
NSW	loc03fedb7f2dc4	2480	DUNOON	153.32540646	-28.6690312
NSW	loc32a11a3f1645	2463	SANDON	153.31307368	-29.68935016
NSW	loc6a6300d30cfc	2234	ALFORDS POINT	151.02516948	-33.98572924
NSW	loc6c99a7ab0c9d	2820	MARYVALE	148.89982742	-32.45888973
NSW	locb7cc48f390a1	2440	SOUTH KEMPSEY	152.84522454	-31.12216252
NSW	locdec0c59303bb	2622	COOLUMBURRA	150.1050766	-35.04793053
NSW	loce0d8d059b5f1	2283	BALMORAL	151.57866536	-33.04578637
NSW	loc08b1f8bd3850	2471	WEST BUNGAWALBIN	153.11912405	-29.1354086
NSW	loc365c9229b366	2622	BACK CREEK	149.94355142	-35.34328747
NSW	loc246c39b10b24	2622	MANAR	149.67827689	-35.26975086
NSW	loc24763c04c36e	2829	TERIDGERIE	148.79835222	-30.91195433
NSW	loc2bfa569bfd8e	2800	ORANGE	149.07236304	-33.25298702
NSW	loc2c2f8db33f54	2422	GLEN WARD	151.6570492	-31.82215979
NSW	loc2cbcd2b0222e	2630	DAIRYMANS PLAINS	149.05660137	-36.21362431
NSW	loc2d18a0128609	2800	SPRINGSIDE	149.03880152	-33.38632806
NSW	loc2dc84bdd2ff7	2587	MURRUMBURRAH	148.32273749	-34.54621191
NSW	loc2e3eb24bbc0a	2817	TONDERBURINE	148.79675386	-31.33977969
NSW	loc60e1828e7e11	2330	HOWES VALLEY	150.83479749	-32.81143147
NSW	loc6105d9923725	2370	DUNDEE	151.90884285	-29.5764703
NSW	loc610bf48f6103	2074	NORTH TURRAMURRA	151.15327563	-33.68821374
NSW	locdd4166a13097	2323	MULBRING	151.47820947	-32.89638088
NSW	locdd5dae96d7e0	2347	BANOON	150.4070684	-30.5272329
NSW	locdd737fbc71ae	2587	NUBBA	148.23969623	-34.512587
NSW	locddc2fa450c89	2484	MIDGINBIL	153.26680688	-28.49947024
NSW	locdddb1e9f2d4a	2794	COWRA	148.64696929	-33.83000123
NSW	locdde0fc0bccc0	2343	SPRING RIDGE	150.22034011	-31.39049474
NSW	locaf4e4182c3af	2571	MALDON	150.63725475	-34.19854503
NSW	loc05f61101c3bd	2460	NEWBOLD	152.69599491	-29.51904633
NSW	loc0d932e02e65c	2454	SPICKETTS CREEK	152.87135867	-30.54554406
NSW	loc0dafe55d09fe	2560	CAMPBELLTOWN	150.8072339	-34.06809194
NSW	loc3c2040e78943	2757	KURMOND	150.70091434	-33.55029574
NSW	loc3ccd7a8daf1f	2866	LARRAS LEE	148.87673533	-32.96261501
NSW	loc3d7f3a7f48ee	2422	BOWMAN	151.81827105	-31.93056822
NSW	loc3dad658225c1	2474	DAIRY FLAT	152.70910434	-28.37647025
NSW	loc3e1e5903ee23	2295	STOCKTON	151.78966648	-32.89804236
NSW	loc3e2c7eee6a14	2756	MCGRATHS HILL	150.84165997	-33.6127855
NSW	loc3e81c158e243	2478	LENNOX HEAD	153.58238354	-28.78872358
NSW	loc3ecfef1fa4ee	2849	CARWELL	149.90341945	-32.84093402
NSW	loc3f3413647ebe	2650	WAGGA WAGGA	147.35984241	-35.10815905
NSW	loc3f80cf94cd90	2712	BERRIGAN	145.82785647	-35.64562199
NSW	loc3fc6408bb7b2	2702	GANMAIN	147.01843941	-34.8077585
NSW	loc405d9637d736	2477	ALSTONVALE	153.44407383	-28.79373221
NSW	loc4060ae89255a	2642	YERONG CREEK	147.0641497	-35.38862024
NSW	loce6cc62541a12	2328	GIANTS CREEK	150.54202547	-32.22282133
NSW	loce707aa82b4d3	2550	MYRTLE MOUNTAIN	149.68728965	-36.85125108
NSW	loce72109e984ef	2099	NORTH CURL CURL	151.29073045	-33.76315759
NSW	loce759e1516e9b	2425	THE BRANCH	152.04320113	-32.55084621
NSW	loce79a054916f4	2790	LITTLE HARTLEY	150.18723828	-33.58974873
NSW	loce85852366e7c	2325	LAGUNA	151.05927719	-33.03707718
NSW	loce882c590a316	2795	LLANARTH	149.55119304	-33.39688095
NSW	loce8aff2d6fdec	2370	RANGERS VALLEY	151.76198916	-29.54218651
NSW	locdc3b968c2e16	2530	CLEVELAND	150.77064363	-34.50301202
NSW	locdc9b7884057c	2256	WOY WOY	151.29601886	-33.50114444
NSW	loce2d074b98c7f	2030	DOVER HEIGHTS	151.28109975	-33.87338074
NSW	loc42a2855158e6	2540	TERARA	150.62940964	-34.86829068
NSW	loc7db488f2500d	2650	ALFREDTOWN	147.54120542	-35.15323235
NSW	loc7e005af0e060	2322	BLACK HILL	151.607695	-32.82107764
NSW	loc7e16c4f91337	2711	OXLEY	144.05987268	-34.02947215
NSW	loc7e5fca3a9e10	2446	HARTYS PLAINS	152.62858024	-31.476368
NSW	loc7f57e3655058	2829	MAGOMETON	148.64745634	-31.02252271
NSW	loc9eac36ea7683	2583	LIMERICK	149.4739083	-34.21273486
NSW	loc9f03ee78b4aa	2099	NARRAWEENA	151.27318302	-33.74938988
NSW	loc9f067125f56c	2337	MOONAN BROOK	151.35727605	-31.95203933
NSW	locd1ac5e15685a	2752	WARRAGAMBA	150.5989983	-33.89056519
NSW	locc478e7bbc68e	2390	JACKS CREEK	149.73951793	-30.4977282
NSW	locd7be0f7e4100	2565	DENHAM COURT	150.83267288	-33.98141409
NSW	loc4a9af1fc62c6	2700	COLINROOBIE	146.57432	-34.45814083
NSW	loc7cc57252f0ca	2580	LOWER BORO	149.78622176	-35.13886538
NSW	loc15cdf862d1d3	2550	NEW BUILDINGS	149.55915618	-36.96113175
NSW	loc0a07e4134ca4	2558	EAGLE VALE	150.81245216	-34.03758574
NSW	locf78285a06a43	2540	CULBURRA BEACH	150.75157475	-34.92790375
NSW	loc88e7f07842d5	2760	ST MARYS	150.77152175	-33.75850423
NSW	loc4514ef69060f	2460	GRAFTON	152.93366329	-29.68168587
NSW	loc88786309a2fd	2430	TAREE	152.44445729	-31.88944806
NSW	loc55037e46c6c7	2335	LOWER BELFORD	151.29967735	-32.62054933
NSW	loc55346396a4e4	2422	MOGRANI	152.03185865	-32.02848312
NSW	loc867c39abae1b	2800	SPRING CREEK	149.10054286	-33.34308322
NSW	loc86dfabab79dc	2440	CARRAI	152.2336519	-30.83285939
NSW	loc86f924fa9125	2795	MILKERS FLAT	149.40181129	-33.279722
NSW	loc87238722f529	2478	EMPIRE VALE	153.51886001	-28.92166464
NSW	loc87b7ccd3faf4	2795	LAFFING WATERS	149.62037055	-33.37078711
NSW	loc87cdcb420fbb	2824	TENANDRA	147.88509397	-31.57730637
NSW	loc837150cc03a7	2482	WANGANUI	153.38156773	-28.56652462
NSW	loc88f7b0695a3e	2827	COLLIE	148.30178881	-31.68144052
NSW	locf8ab3503f55f	2472	BROADWATER	153.42616704	-29.03464232
NSW	locca7925f31598	2680	BILBUL	146.15917925	-34.28165927
NSW	loc340d9978d889	2575	YERRINBOOL	150.55887716	-34.34768851
NSW	locdfe57a4cffcf	2462	MINNIE WATER	153.26900807	-29.74723074
NSW	loccf1dc1b4a75a	2320	ALLANDALE	151.41384978	-32.72674629
NSW	loccf40a6498667	2621	ANEMBO	149.44796471	-35.77527547
NSW	locd03d8f0b9581	2644	WOOMARGAMA	147.27710935	-35.85775835
NSW	locd069727f5cd4	2628	ROCKY PLAIN	148.67113541	-36.24432508
NSW	locd0b60675a456	2340	DARUKA	150.97073644	-31.03737941
NSW	loc0ae80de02abc	2650	CARABOST	147.71733187	-35.61214862
NSW	loc0e76c63e983b	2577	BELANGLO	150.22167359	-34.51309767
NSW	loc73ec5707262f	2528	WARILLA	150.8588558	-34.55209376
NSW	loc764c4c40bb72	2675	WALLANTHERY	145.89149575	-33.23872851
NSW	locdf8369012435	2540	EROWAL BAY	150.6641032	-35.10210118
NSW	loc70f7a2202bd7	2460	BARRETTS CREEK	152.75077826	-29.36404547
NSW	locc139a5ccc616	2324	HAWKS NEST	152.21087864	-32.62192871
NSW	loc7c5313a6da29	2790	HAMPTON	150.02637436	-33.66618119
NSW	loc86bca88f5f62	2307	SHORTLAND	151.69182894	-32.87812882
NSW	loc895e53163ca1	2422	INVERGORDON	151.72225809	-32.05111764
NSW	loc89abb7a9bf13	2454	BUNDAGEN	153.05868862	-30.4132717
NSW	loc0332aa9e001b	2795	KELSO	149.62283339	-33.41938916
NSW	loc033ee6bfab9d	2160	MERRYLANDS	150.98669021	-33.83600924
NSW	loc037f04bcb37d	2229	CARINGBAH	151.12684649	-34.03506032
NSW	loc037f948dcbef	2372	BOOKOOKOORARA	152.09146397	-28.78030459
NSW	loc03880f94b665	2283	FISHING POINT	151.59504138	-33.05292764
NSW	loc03b813227573	2336	UPPER DARTBROOK	150.7062806	-31.91965784
NSW	loc03edd00803cd	2478	TEVEN	153.4919997	-28.81530933
NSW	loc03f2477ea9d2	2539	MOLLYMOOK	150.46904999	-35.34026765
NSW	loc047cdc65b9d6	2477	EAST WARDELL	153.48223219	-28.96441765
NSW	loc04a61a483f8f	2850	YARRAWONGA	149.65486736	-32.36709151
NSW	loc04c1aacc1a2d	2540	HUSKISSON	150.65073519	-35.03854299
NSW	loc051b166879ae	2655	THE ROCK	147.11868802	-35.27043438
NSW	loc6c0388db1760	2870	MANDAGERY	148.44872932	-33.25711473
NSW	loc96f8804c2d94	2093	MANLY VALE	151.26647293	-33.78293959
NSW	loc97297ea17110	2358	KINGSTOWN	151.12553225	-30.50170808
NSW	loc20022e14f052	2575	WILLOW VALE	150.47052068	-34.43208033
NSW	loc55ff86d91552	2446	REDBANK	152.73932913	-31.42417676
NSW	loc562538902fcd	2460	KREMNOS	152.94398712	-29.98203851
NSW	locf765141b92ca	2229	DOLANS BAY	151.12626942	-34.06343031
NSW	loc4dca9b7511d4	2304	MAYFIELD	151.73816846	-32.89780389
NSW	loc4e0bddab46e2	2484	DOON DOON	153.30563746	-28.49607591
NSW	loc4f4b52c314cb	2530	DAPTO	150.79408601	-34.50538183
NSW	loc4feb7c8b1855	2340	NUNDLE	151.11266595	-31.45858146
NSW	loc8390c44df3cd	2656	MILBRULONG	146.87044081	-35.25208793
NSW	loc83af0e1f0bb2	2259	SUMMERLAND POINT	151.56477955	-33.14086076
NSW	loc9d3ac61b1a1a	2333	GUNGAL	150.47535987	-32.2641719
NSW	locc11d8bfd1cab	2671	LAKE COWAL	147.37533627	-33.65749045
NSW	locc17cf4d03f75	2388	SPRING PLAINS	149.28609262	-29.92862569
NSW	locc1f94592c40f	2831	ELONG ELONG	149.08823395	-32.0829319
NSW	locc28cbd37c21c	2211	PADSTOW HEIGHTS	151.03323365	-33.97048185
NSW	locc2ef542af6d5	2871	FORBES	147.98117374	-33.39570681
NSW	locd61782fda373	2560	AIRDS	150.8331411	-34.08597397
NSW	loc4cb78cca5f82	2729	WONDALGA	148.09811701	-35.39457882
NSW	loc4cc5c3c58ee0	2264	DORA CREEK	151.49714588	-33.075963
NSW	loc4cd81b244dfd	2346	UPPER MANILLA	150.66082336	-30.60095615
NSW	loc4d74e5fe9c22	2550	VERONA	149.80995959	-36.44605729
NSW	loc4e0f1850dd66	2381	TAMBAR SPRINGS	149.86950026	-31.40036303
NSW	loc4e7bb0f13455	2581	LERIDA	149.33155007	-34.88805249
NSW	loc4ea843229e58	2430	KIWARRAK	152.443253	-31.98789945
NSW	loc4ebe03b75c70	2546	TINPOT	149.89803467	-36.23788573
NSW	loc5040b4b706ce	2339	PARRAWEENA	150.43458703	-31.72975663
NSW	loc82299f3d307a	2217	KOGARAH	151.13653279	-33.9672867
NSW	loc98cc1bff2a58	2566	VARROVILLE	150.81121368	-34.00303961
NSW	loc36be7ca09b27	2440	COMARA	152.37848301	-30.72976078
NSW	loc1ea7920970dd	2852	GULGONG	149.52316994	-32.36801698
NSW	loc1eb7be566d82	2629	KIANDRA	148.47367972	-35.88525785
NSW	loc1ebad6b9769d	2330	REEDY CREEK	151.33539235	-32.46564864
NSW	loc1ecc8fee2ed1	2409	BOGGABILLA	150.18519638	-28.7045076
NSW	loc1f1646bfb005	2582	NANIMA	149.12990881	-35.01580032
NSW	loc1f8610c34fd8	2640	EAST ALBURY	146.94068034	-36.0890606
NSW	loc1f97fb783207	2672	LAKE CARGELLIGO	146.3329018	-33.37422818
NSW	loc1fb54fcd843a	2582	MULLION	148.87505502	-35.14358764
NSW	loc200223d2626c	2429	KHATAMBUHL	151.99267233	-31.75912102
NSW	loc201726608dd4	2795	DOG ROCKS	149.61763473	-33.7587483
NSW	loc55458305128c	2831	COOLABAH	146.68668993	-30.98383247
NSW	locfb17f330f8ed	2866	MOLONG	148.8618215	-33.09933352
NSW	locfbfc7667862e	2207	BARDWELL PARK	151.12542474	-33.93469798
NSW	locfc505309727f	2581	GURRUNDAH	149.40686503	-34.66987881
NSW	locfcf444871d3b	2280	MARKS POINT	151.64816048	-33.05985635
NSW	locfcfe289f39d5	2430	KOORAINGHAT	152.50544445	-31.98631993
NSW	locfe004aacc767	2440	BELMORE RIVER	152.96554709	-31.0913171
NSW	locfea9d2c4d053	2839	NARRAN LAKE	147.32083757	-29.83700965
NSW	locfeb7cbb107e6	2795	PERTHVILLE	149.54979615	-33.49606111
NSW	loc2778ebc68d70	2380	GHOOLENDAADI	149.91206056	-30.95117428
NSW	loc26f98008abfe	2550	KALARU	149.93112254	-36.72982342
NSW	loc26ffa279224a	2538	LITTLE FOREST	150.37370782	-35.29321741
NSW	loc5d8b3dde8abd	2474	UPPER EDEN CREEK	152.85599446	-28.51653767
NSW	loca9f211f0292b	2541	BANGALEE	150.5515997	-34.84428805
NSW	loc2faf67052341	2325	KEARSLEY	151.40073621	-32.84872436
NSW	loc2fdf87e092bc	2299	LAMBTON	151.70634195	-32.91341665
NSW	loc2ff764a4a93b	2257	UMINA BEACH	151.31098378	-33.51874349
NSW	loc301f35621dbb	2480	DUNGARUBBA	153.37468854	-28.99215177
NSW	loc30679eaa8f2b	2582	BOOKHAM	148.62522741	-34.843637
NSW	loc30b79a9d20a2	2320	FARLEY	151.50137461	-32.73386229
NSW	loc310d26c740dc	2580	CURRAWANG	149.52997812	-34.96810157
NSW	loc3110c46e2ec9	2799	NEVILLE	149.19455071	-33.73821721
NSW	loc977de950e13f	2648	CURLWAA	141.98047248	-34.1014774
NSW	loc97a655bcd40c	2734	WETUPPA	143.86666312	-35.32891447
NSW	locb44e2de16292	2446	ELLENBOROUGH	152.41880455	-31.48168082
NSW	locb479a28eb8e3	2171	LEN WATERS ESTATE	150.85286566	-33.91316779
NSW	locb4bb58e9b5b0	2867	CUMNOCK	148.69587279	-32.93914143
NSW	locb5769b779f30	2480	SOUTH LISMORE	153.2530689	-28.81596065
NSW	locb5958b06822e	2029	ROSE BAY	151.26898881	-33.87388441
NSW	locb6f7a8a6189b	2549	GREIGS FLAT	149.8521027	-36.97181591
NSW	locb7487dfecf74	2311	UPPER ALLYN	151.46072103	-32.1459397
NSW	locb77232a83192	2539	MOUNT KINGIMAN	150.34199045	-35.33898378
NSW	locb7fc93d377fb	2336	DARTBROOK	150.81628711	-32.15212254
NSW	locaf99df72aa12	2829	PINE GROVE	148.68683637	-30.8910096
NSW	loc28d46d9ed15b	2800	OPHIR	149.24584899	-33.13686298
NSW	loc2998b855a389	2423	SEAL ROCKS	152.50609929	-32.42270353
NSW	loc2a28f5208767	2011	POTTS POINT	151.22545344	-33.86742606
NSW	loc844932e8ecb3	2283	BUTTABA	151.57529122	-33.05055563
NSW	loc0e028db69108	2446	SANCROX	152.79723176	-31.44511242
NSW	loc0e9e9927554c	2281	PINNY BEACH	151.63565908	-33.11800458
NSW	loc0eb9f65eee2c	2422	BARRINGTON TOPS	151.52775364	-31.95886113
NSW	loc0f551e08769e	2440	HICKEYS CREEK	152.60107698	-30.87830247
NSW	locc41bc6402abb	2216	ROCKDALE	151.14065939	-33.95321294
NSW	locc4b550356820	2421	SUMMER HILL	151.5005769	-32.47853113
NSW	loce6c49925a9b5	2540	COMERONG ISLAND	150.73644244	-34.88545226
NSW	loce6ecd1c0b11b	2484	HOPKINS CREEK	153.23543405	-28.2875587
NSW	loce6f8f5e92d6f	2283	RATHMINES	151.57925266	-33.03854054
NSW	loce776a790d05b	2790	MOUNT LAMBIE	149.99243297	-33.462848
NSW	loce84cd51fd34e	2440	RAINBOW REACH	153.00647609	-30.92730993
NSW	loce91d9592d5ad	2621	BUNGENDORE	149.4803595	-35.29324572
NSW	loce922c71062b4	2539	BAWLEY POINT	150.37927869	-35.51154346
NSW	loce9460141fc45	2656	BROOKONG	146.58486579	-35.30232929
NSW	loce9ae2091f32b	2831	GIRILAMBONE	146.8610743	-31.2351826
NSW	loce01aa62f5578	2076	NORMANHURST	151.09599577	-33.72379425
NSW	loce031d7b2c72c	2428	DARAWANK	152.49619044	-32.10277079
NSW	loce0d4057b28e7	2756	EBENEZER	150.88635747	-33.51976819
NSW	loce10a78a0ae03	2448	NAMBUCCA HEADS	152.98437661	-30.64685588
NSW	loc0800047d2ba3	2583	GRABBEN GULLEN	149.38310624	-34.53086933
NSW	loc08739ca12d1b	2794	HOVELLS CREEK	148.85834791	-34.06800427
NSW	loc8291fbcd07f6	2850	LINBURN	149.70083233	-32.42364344
NSW	loc831fe939da3a	2430	SALTWATER	152.54274945	-32.00681076
NSW	loc840ab95c26b4	2766	EASTERN CREEK	150.8451738	-33.80568964
NSW	loc84429209a84c	2732	BURRABOI	144.32799948	-35.34169822
NSW	loc84b60b817fcd	2850	BOMBIRA	149.60524412	-32.5717978
NSW	loc85107539cba6	2536	MOGO	150.10161925	-35.79416015
NSW	loc8640a77726c5	2831	MACQUARIE MARSHES	147.63044127	-30.69586408
NSW	locb8990ea67534	2122	EASTWOOD	151.08382062	-33.78882428
NSW	loca050ba4a0855	2481	BROKEN HEAD	153.59208698	-28.72925066
NSW	loce2d8f66de6d5	2759	ST CLAIR	150.78463452	-33.79734696
NSW	loc556ca5e88c6c	2430	POSSUM BRUSH	152.39267836	-32.03514689
NSW	loc55dbbab0147f	2163	VILLAWOOD	150.98315278	-33.88398116
NSW	loc55dc7fecc64b	2487	CASUARINA	153.57093337	-28.30085841
NSW	loc565d8c20c346	2450	BONVILLE	153.01713203	-30.37490161
NSW	loc56b9a7e9786c	2832	CUMBORAH	147.61426506	-29.64405671
NSW	loc56d02d83a8ef	2250	POINT CLARE	151.32181054	-33.43951584
NSW	loc57627b66dec1	2540	MOOLLATTOO	150.37843397	-34.78700152
NSW	loc57895ce944ef	2460	LAWRENCE	153.07705464	-29.45097798
NSW	loc57e54087a37e	2867	YULLUNDRY	148.66941796	-32.86000069
NSW	loc921538e60398	2680	WILLBRIGGIE	145.99040208	-34.47985812
NSW	loc8afe0db58baf	2540	OLD EROWAL BAY	150.64963697	-35.08810095
NSW	loc32024a763a1e	2354	WOOLBROOK	151.32153838	-30.95831594
NSW	loc66b34f5ecfd4	2790	SODWALLS	149.98227255	-33.56154985
NSW	loc66b680dfdd5a	2536	SUNSHINE BAY	150.20787697	-35.74533508
NSW	loc671d50f88417	2790	KANIMBLA	150.20995033	-33.63249587
NSW	loc67f09099fd34	2372	SILENT GROVE	151.66971632	-29.15784479
NSW	loc684d2125f0d4	2700	CUDGEL	146.44672987	-34.68174403
NSW	loc68a000d9bdbb	2444	THE HATCH	152.82488201	-31.3611984
NSW	loc68d0ea60430d	2280	JEWELLS	151.6874565	-33.0092019
NSW	loc69bed560c13d	2622	MAJORS CREEK	149.73079399	-35.58271158
NSW	locb8267c421d30	2480	MONALTRIE	153.2906312	-28.85209767
NSW	locb86006e3f506	2444	BLACKMANS POINT	152.83060895	-31.38975869
NSW	locde1148fa9b18	2787	YERRANDERIE	150.22589733	-34.1197515
NSW	locde588a2c8292	2471	BORA RIDGE	153.18436237	-29.06082411
NSW	locde66bbf175de	2474	WYNEDEN	152.92539529	-28.53286558
NSW	locde8645e0bd1c	2446	CROSSLANDS	152.71543017	-31.43929272
NSW	locded05740cccb	2330	JERRYS PLAINS	150.85213096	-32.468785
NSW	locdf30815a8554	2430	BOOTAWA	152.3590085	-31.9243933
NSW	locdf43d1f266d9	2795	COLO	149.26533752	-33.77856504
NSW	locdf8502207576	2526	UNANDERRA	150.84527087	-34.45719913
NSW	locdfe7e911b751	2630	MIDDLE FLAT	149.19187342	-36.23571172
NSW	loce0287d9c50f0	2047	DRUMMOYNE	151.15283051	-33.8525367
NSW	loce02a04fcdd66	2790	GANBENANG	150.13243819	-33.71067027
NSW	loce03f6f3627ee	2827	BEARBONG	148.89267742	-31.6686226
NSW	loc064afee02671	2323	TENAMBIT	151.61504671	-32.74250508
NSW	loc3270bc3931c7	2460	KOOLKHAN	152.93205497	-29.61786334
NSW	loc343bc11ddef5	2669	UNGARIE	146.91626445	-33.57333154
NSW	loc0f67b83b19f6	2470	COOMBELL	152.9658709	-29.01591302
NSW	loc0f7025deaab6	2630	MIDDLINGBANK	148.81212045	-36.21450827
NSW	loc0f953782d82e	2210	RIVERWOOD	151.05287864	-33.94665469
NSW	loc40e48c81144a	2642	BROCKLESBY	146.6643596	-35.81258187
NSW	loc40f679d782d6	2551	NARRABARBA	149.7720294	-37.21870506
NSW	loc40fdc9035f11	2827	GILGANDRA	148.61511328	-31.7160963
NSW	loc4109bc713005	2867	BALDRY	148.46763551	-32.88812801
NSW	loc411fbadfa286	2480	LINDENDALE	153.37481502	-28.82839654
NSW	loc41bac85bd022	2795	GEORGES PLAINS	149.48924296	-33.52697587
NSW	loc41c0aed95692	2627	KALKITE	148.64350992	-36.33292604
NSW	loc420f93c6b9ce	2462	PILLAR VALLEY	153.16201986	-29.70155755
NSW	loca70481a2322b	2259	KINGFISHER SHORES	151.55683647	-33.17073385
NSW	loc9c53aaac3a0f	2460	SANDY CROSSING	153.09610756	-29.76611045
NSW	loca08cda6609ec	2642	INDI	148.05565205	-36.26827443
NSW	loca09f3c305889	2085	BELROSE	151.21098947	-33.72179974
NSW	loca13c1180c05d	2333	SANDY HOLLOW	150.56660692	-32.34328001
NSW	locee16221c1dd0	2715	HATFIELD	143.68465712	-33.74697253
NSW	loc8ae3f02cf0be	2644	MOUNTAIN CREEK	147.14393147	-35.77936085
NSW	loc8aecb47f8762	2440	SUMMER ISLAND	152.96602535	-30.98696396
NSW	loc8b27d4820a80	2324	KARUAH	151.95757886	-32.63261085
NSW	loc8baad2c92089	2793	DARBYS FALLS	148.85853476	-33.90625294
NSW	loc8bb001192102	2422	DEWITT	151.75983324	-31.78605297
NSW	loc8bb853fff83a	2105	ELVINA BAY	151.27737099	-33.63760673
NSW	loc8beda6858d0c	2630	IRONMUNGY	148.91293685	-36.62576252
NSW	loc8c4a72d8ad9a	2340	GAROO	150.96134392	-31.42221495
NSW	loc8c7836137125	2147	SEVEN HILLS	150.93868527	-33.77667812
NSW	loc65a70f5b44fe	2646	COREEN	146.32448223	-35.74150627
NSW	loc669b9d0f493e	2793	WOODSTOCK	148.87758431	-33.769323
NSW	locb1ce1ef1d110	2346	NAMOI RIVER	150.81523472	-30.59003356
NSW	loc32248adfd5be	2338	BLANDFORD	150.89786389	-31.75407847
NSW	loc92d8cacccf99	2587	MCMAHONS REEF	148.4157524	-34.68364449
NSW	loc93260f3b6d7d	2423	UPPER MYALL	152.15578871	-32.25247381
NSW	loc932bf08168f6	2290	KAHIBAH	151.71182025	-32.96264097
NSW	locbc9f86a26a46	2430	WALLABI POINT	152.56151007	-31.9917702
NSW	loc69ec8a65b41e	2480	HOWARDS GRASS	153.30253162	-28.79121463
NSW	loc69f65c3b6b23	2479	POSSUM CREEK	153.49360107	-28.67125288
NSW	loc9018a8fe5d4b	2671	NORTH YALGOGRIN	146.84810325	-33.83019875
NSW	loc91d20ffdea8b	2829	GILGOOMA	148.57904425	-30.70356998
NSW	loc9653abcf4e21	2477	WOLLONGBAR	153.40897743	-28.81922305
NSW	loce0d47958f468	2021	PADDINGTON	151.22839912	-33.88379538
NSW	loce1dc3eccf2dd	2844	BIRRIWA	149.4788983	-32.12367837
NSW	loc9d52fbbf6554	2775	LAUGHTONDALE	151.03000209	-33.43848037
NSW	loc429a0d278d43	2626	BREDBO	149.17215839	-35.95864294
NSW	loc7411d694cd9f	2849	MURRUMBO	150.24110654	-32.39026401
NSW	loc7352df12074b	2347	WOODSREEF	150.78500763	-30.43331581
NSW	loc73ca9f8ce41f	2340	TIMBUMBURI	150.90607579	-31.22679794
NSW	loc73f937c47e59	2330	MIDDLE FALBROOK	151.14909073	-32.44229907
NSW	loc7455e6d33e55	2284	BOOLAROO	151.6275895	-32.94795074
NSW	loc74c147a56583	2530	HORSLEY	150.77327241	-34.48999736
NSW	loc74cb67083825	2390	HARPARARY	150.0545027	-30.54964423
NSW	loc74ef5b752de7	2737	EUSTON	142.87920061	-34.35407003
NSW	loc74f1aa0c4e17	2720	BLOWERING	148.25842337	-35.50313885
NSW	loc750ff0be5401	2336	ROUCHEL BROOK	151.09954336	-32.19073086
NSW	loc751d15886bc8	2582	BANGO	148.96550205	-34.75831644
NSW	locce998b5a7431	2191	BELFIELD	151.08590335	-33.90451607
NSW	loc859e471ba2ca	2440	OLD STATION	152.91503057	-31.05482943
NSW	loc8c3b9494e8ab	2710	CALIMO	144.56492486	-35.42497104
NSW	loccab872493f5c	2324	KINGS HILL	151.77614588	-32.71536694
NSW	loccacb8c5e9195	2642	TOOMA	148.01567533	-35.94526596
NSW	loc7a9af904279c	2170	MOUNT PRITCHARD	150.90317791	-33.90291797
NSW	loca99e707a1cb2	2753	GROSE VALE	150.6561842	-33.58537712
NSW	loc8d1b83cce497	2795	BALLYROE	149.57094381	-34.0483978
NSW	loc8dcbae0a09fd	2250	PEATS RIDGE	151.2315017	-33.34452477
NSW	loc8e5ae663d020	2450	CORAMBA	153.03353296	-30.19343155
NSW	loc8e9e0649ffab	2530	HAYWARDS BAY	150.79412087	-34.54456453
NSW	loc8ea1a36fd351	2646	OAKLANDS	146.12215098	-35.51480175
NSW	loc8eccbefd9406	2453	BIELSDOWN HILLS	152.67031245	-30.36839913
NSW	loc90164751585d	2470	ELLANGOWAN	153.07915758	-29.0309723
NSW	loc9034a6dafd26	2818	BENOLONG	148.67002505	-32.50833675
NSW	loc907d4f301bbc	2430	OXLEY ISLAND	152.56948658	-31.91578162
NSW	loc91321c4eed0c	2681	MYALL PARK	146.13552843	-34.10629118
NSW	loc99cb8071f06a	2321	HEDDON GRETA	151.50763812	-32.80755914
NSW	loca3f86e34914c	2425	GIRVAN	152.06375484	-32.47447942
NSW	loca731991d8527	2469	BUNGAWALBIN	153.20138963	-29.11230857
NSW	locd9a88154e860	2262	DOYALSON	151.51337894	-33.19610223
NSW	locd611dfe867ee	2460	STOCKYARD CREEK	152.80892574	-29.51632412
NSW	locd6bb5b1968a0	2790	JENOLAN	150.06725368	-33.80823679
NSW	locd6ecb6e60cd3	2877	EUABALONG	146.36428439	-33.01712235
NSW	locd849960ba42a	2381	CURLEWIS	150.25829988	-31.1819857
NSW	locb3c590cc4ee5	2528	BARRACK POINT	150.86972671	-34.56295839
NSW	loc32c677796238	2500	MANGERTON	150.87254059	-34.43264323
NSW	loc3301f624864a	2795	GLANMIRE	149.70560056	-33.41949705
NSW	loc334c4157c74b	2710	HARTWOOD	145.34933185	-35.34315969
NSW	loc341c23728505	2849	PYANGLE	149.93328539	-32.61936829
NSW	loc343304951e46	2480	RUTHVEN	153.27290999	-28.92882957
NSW	loc0c3b031544d6	2337	BELLTREES	151.12254388	-31.96971899
NSW	loce1e00c23abd8	2251	MACMASTERS BEACH	151.41179869	-33.49507415
NSW	loce257e0d653ae	2323	FREEMANS WATERHOLE	151.49307436	-32.98779504
NSW	loce2680dbae87d	2790	RYDAL	150.04590492	-33.52372243
NSW	loce27d73ce3da5	2260	TERRIGAL	151.42614514	-33.44348922
NSW	loce2c2f2bd43ec	2469	WYAN	152.87122324	-29.06241982
NSW	loce2c72ac1915d	2480	RICHMOND HILL	153.34655947	-28.78805517
NSW	loce35ef4664040	2820	LAKE BURRENDONG	149.1434222	-32.65716879
NSW	loce373f16c4834	2303	HAMILTON	151.74526827	-32.92235716
NSW	loc330467233254	2480	LAGOON GRASS	153.32127178	-28.7932464
NSW	loc34d3315fe5ba	2264	YARRAWONGA PARK	151.54690024	-33.10028615
NSW	loc6c7260a530b4	2441	GEARYS FLAT	152.57611983	-31.17139079
NSW	loc78459135dad4	2482	WILSONS CREEK	153.43205913	-28.56875876
NSW	loc7919c18fe2d4	2734	MALLAN	143.76136655	-35.10472623
NSW	loc79339ee86ff2	2289	KOTARA	151.69766585	-32.943255
NSW	loc79b54685c1b3	2583	WHEEO	149.27865724	-34.51334004
NSW	loc7a30b5a31054	2536	MALONEYS BEACH	150.25421716	-35.69942882
NSW	loc7aaf5ca8e787	2232	LOFTUS	151.04494039	-34.04582828
NSW	loc779b8499c5f4	2287	MARYLAND	151.66217821	-32.87998871
NSW	locec045e59d1c4	2280	FLORAVILLE	151.66321035	-33.01202736
NSW	loced54de161e00	2767	DOONSIDE	150.87098915	-33.76143646
NSW	loced90abd69559	2480	LARNOOK	153.11521486	-28.65336463
NSW	locedb2cfd7c2dc	2540	HYAMS BEACH	150.685459	-35.10921278
NSW	locee0bf47ce8d6	2429	STRATHCEDAR	152.36385633	-31.76955558
NSW	locef23e45a4eec	2282	WARNERS BAY	151.65186635	-32.97118104
NSW	locf059ab89b039	2439	UPSALLS CREEK	152.64720205	-31.63019409
NSW	locf0dab7db29f3	2828	ARMATREE	148.49175167	-31.42375378
NSW	locf16132ab62d0	2535	FAR MEADOW	150.70227595	-34.82578965
NSW	locf4bf07698417	2800	LOWER LEWIS PONDS	149.25426141	-33.20414424
NSW	locf5cf667ef190	2629	PROVIDENCE PORTAL	148.6152588	-35.94973732
NSW	loca0346c738027	2322	CHISHOLM	151.63692601	-32.75468544
NSW	loc2c84d0baac96	2529	BLACKBUTT	150.84009626	-34.57107998
NSW	loc8ae16f14e925	2680	YOOGALI	146.10002334	-34.3126608
NSW	loc1feb5f825219	2650	BRUCEDALE	147.42918338	-35.00821257
NSW	loc68d3c4d3e012	2705	CORBIE HILL	146.50278222	-34.54281171
NSW	loc51a1cfdcf2cd	2577	UPPER KANGAROO RIVER	150.59312711	-34.69316001
NSW	loc210baea74d2a	2112	RYDE	151.11185435	-33.81055982
NSW	locc4ae87ec3836	2557	CATHERINE FIELD	150.76509074	-33.99154268
NSW	loc71e7efb9f31d	2618	SPRINGRANGE	149.08419296	-35.09022427
NSW	loc94008344bafc	2460	GREAT MARLOW	152.9751308	-29.65051346
NSW	loc12de06d92789	2710	STUD PARK	144.9487724	-35.37442045
NSW	loc4768df304f93	2372	WILLSONS DOWNFALL	152.12569607	-28.71151807
NSW	loca8964fabc70c	2582	WOOLGARLO	148.72134802	-34.87866096
NSW	loca8a68aa61817	2804	CANOWINDRA	148.64070658	-33.53372379
NSW	loca8bdf95551f8	2795	TRIANGLE FLAT	149.45304062	-33.79162836
NSW	loca8dce1c36915	2259	TUGGERAH	151.42754347	-33.30685508
NSW	loca8e11382c298	2800	LEWIS PONDS	149.2816581	-33.28145005
NSW	loca8f65eb420b4	2482	MULLUMBIMBY CREEK	153.44549621	-28.55226825
NSW	loca91e9c276394	2357	PURLEWAUGH	149.6011264	-31.34539452
NSW	loca920200c0ef6	2396	BARADINE	149.06068128	-30.93101949
NSW	loca96ec4b470a8	2333	MCCULLYS GAP	151.00081944	-32.20694145
NSW	loca97c22cfcb2d	2439	BLACK CREEK	152.63858502	-31.58584209
NSW	loca9dd39989565	2790	HARTLEY	150.16376859	-33.54071862
NSW	loc740796d5a402	2765	GABLES	150.90780957	-33.62748722
NSW	locd8a820d5586a	2093	CLONTARF	151.25602641	-33.80686158
NSW	locda03386ce4f3	2330	SINGLETON	151.17882114	-32.56946143
NSW	locda20a08f34dd	2035	PAGEWOOD	151.21723187	-33.93798107
NSW	loc8764bde152f7	2480	CHILCOTTS GRASS	153.34355169	-28.83316543
NSW	loc883742b11dae	2283	FASSIFERN	151.57747506	-32.98193949
NSW	loc15af7a21a479	2440	BELLIMBOPINNI	152.8989077	-31.00577074
NSW	loc7fc00a61b78b	2430	DUMARESQ ISLAND	152.51046814	-31.90899044
NSW	loc6a11a71a218d	2840	BARRINGUN	145.71223453	-29.00933862
NSW	loc6a4d75322dc8	2446	BEECHWOOD	152.67193	-31.43782922
NSW	loc6a9b492e1384	2671	WEST WYALONG	147.10800641	-33.87494579
NSW	loc6aa08950e03f	2403	MYALL CREEK	150.72655896	-29.77824069
NSW	loc6ab90ca6657e	2787	BLACK SPRINGS	149.71857137	-33.8571008
NSW	loc6afd1f4b2f7c	2823	BUNDEMAR	148.14865005	-31.78689129
NSW	loc6b757ad8b4a1	2710	LINDIFFERON	145.18496301	-35.40970334
NSW	loc3e58d8dc1320	2142	CAMELLIA	151.03339061	-33.81898681
NSW	locf1e96a704f06	2484	KYNNUMBOON	153.37458933	-28.30789285
NSW	loc1f7067191f23	2560	AMBARVALE	150.79719021	-34.08926179
NSW	loc6cb50b8b3994	2489	POTTSVILLE	153.55808972	-28.38774317
NSW	locbcf582d49897	2758	BERAMBING	150.44925713	-33.53495376
NSW	loc9c5c037b1357	2036	EASTGARDENS	151.22575697	-33.94511745
NSW	loc9c72f9c3b509	2711	GUNBAR	145.2968275	-33.93606985
NSW	loc9c90c5da25ef	2325	ELRINGTON	151.43072627	-32.86532578
NSW	loc9c92df683045	2447	TALARM	152.8433342	-30.70220545
NSW	loc9d05993b5e9f	2454	BELLINGEN	152.88866414	-30.45268934
NSW	loc22920a46b186	2650	WANTABADGERY	147.72058692	-35.0063191
NSW	loc22e9acdaee90	2754	TENNYSON	150.73732556	-33.53304788
NSW	loc2313601339c9	2734	DILPURRA	143.70140773	-35.18581069
NSW	loc239de2f67095	2423	NERONG	152.17688659	-32.53173942
NSW	loc23e4ed069d1e	2580	POMEROY	149.5261842	-34.68778374
NSW	loc240a7e83d7d4	2337	TOMALLA	151.47979034	-31.82409437
NSW	loc5a71cecd18ba	2321	CLARENCE TOWN	151.78342024	-32.58761668
NSW	loc189299b34c53	2360	NULLAMANNA	151.2355084	-29.62408038
NSW	loc18f8820a5fa4	2795	ARKELL	149.38584127	-33.73582901
NSW	loc19bc7c4600fb	2622	MONGA	149.90983011	-35.55524437
NSW	loc1a6944f8340b	2795	GEMALLA	149.84072095	-33.50020225
NSW	loc1aa44b289f9e	2536	BUCKENBOWRA	149.98595409	-35.66987815
NSW	loc4b8c9f1e420f	2251	BENSVILLE	151.39223473	-33.49811786
NSW	loc77f17e4fa0df	2820	SPICERS CREEK	149.13691895	-32.39588746
NSW	loc89ff3d0cf786	2786	BELL	150.29399607	-33.49732728
NSW	loc8ec08977be53	2570	WEROMBI	150.57974657	-33.98617254
NSW	loc8f02a2170a6b	2712	BOOMANOOMANA	145.84249524	-35.89131954
NSW	loce4d0d551f423	2283	KILABEN BAY	151.59214072	-33.02394638
NSW	loce68d383259a8	2540	NOWRA HILL	150.56393813	-34.93206086
NSW	loce6b9edea9174	2481	BYRON BAY	153.60197725	-28.64734698
NSW	loce6c4537c095b	2645	URANA	146.23186055	-35.32207357
NSW	loce73bb13a394a	2640	WIRLINGA	147.05288311	-36.04536562
NSW	loceb3c40341a23	2084	COTTAGE POINT	151.20368389	-33.61966966
NSW	loca9ac3eb1dd9d	2318	SALT ASH	151.92046529	-32.78872866
NSW	loc1b19c7376d10	2217	KOGARAH BAY	151.12445628	-33.98352829
NSW	loc3a7d2ef63d6e	2257	BOOKER BAY	151.34727389	-33.51422835
NSW	locf01849121034	2645	CULLIVEL	146.4661425	-35.25186683
NSW	loca2810d07dbca	2178	KEMPS CREEK	150.78736267	-33.86592441
NSW	loc91de8747b94a	2577	MOUNT MURRAY	150.63510238	-34.54975776
NSW	loc9366097656e4	2665	BINYA	146.33935753	-34.14310338
NSW	loc96ea571e7337	2232	KAREELA	151.08312767	-34.01689351
NSW	loc9a09c93a8c4e	2570	THERESA PARK	150.63571079	-33.99084131
NSW	loc9b0db329b1a4	2258	OURIMBAH	151.33410443	-33.31304715
NSW	loc9c0cb00d4044	2474	IRON POT CREEK	152.86123505	-28.63702673
NSW	loc9c67086d2f77	2337	GLENBAWN	151.01689818	-32.07349507
NSW	loc9cd551d85989	2312	NABIAC	152.39562171	-32.11983236
NSW	loc9dc1eb4d73f4	2620	GUNDAROO	149.27830174	-35.03507842
NSW	loc9e38e0954d1d	2644	COPPABELLA	147.75047998	-35.74689276
NSW	loc9f5f04451341	2748	ORCHARD HILLS	150.73037832	-33.80835293
NSW	loce811ed0c9547	2650	THE GAP	147.21279358	-34.95422357
NSW	loce873eaf619b1	2481	TALOFA	153.55515859	-28.67355771
NSW	loce8b6d568cd7a	2581	LADE VALE	149.15764064	-34.85001413
NSW	loce8cfa5d427a3	2577	MOSS VALE	150.39644486	-34.55058129
NSW	locebd9e4154ec9	2640	THURGOONA	146.991355	-36.05589304
NSW	loceaeac240e4a3	2539	ULLADULLA	150.46133208	-35.35722026
NSW	loc20e7cce6f4e6	2753	LONDONDERRY	150.73637742	-33.65367689
NSW	loc2251c3b45983	2790	LIDSDALE	150.11760127	-33.35597002
NSW	loca1f87e36e821	2535	BELLAWONGARAH	150.6189601	-34.75893256
NSW	loca7bc65df7432	2731	BUNNALOO	144.55434732	-35.80318371
NSW	loc805f9d8b291c	2170	LURNEA	150.89717373	-33.93596111
NSW	loc82ab79c640eb	2320	ROTHBURY	151.31552708	-32.71166858
NSW	loc5db13dd1c739	2870	COOKS MYALLS	147.97810067	-33.01949975
NSW	loc23a92d4be236	2808	WYANGALA	148.94504305	-33.97972005
NSW	loccd297fea05a3	2325	CEDAR CREEK	151.17176148	-32.83755788
NSW	loc143dd0e061bf	2325	QUORROBOLONG	151.38182943	-32.93517086
NSW	loc2e8b11d41aeb	2481	SKINNERS SHOOT	153.59058262	-28.65811138
NSW	loc256c5b43aefd	2063	NORTHBRIDGE	151.2180093	-33.81083653
NSW	loc2596a7bb4f88	2168	ASHCROFT	150.89988455	-33.91601515
NSW	locb4f70437e4df	2555	BADGERYS CREEK	150.74521568	-33.8820035
NSW	loca3fec09bb8ae	2576	EAST KANGALOON	150.60266147	-34.5273244
NSW	loca85fc83b7a00	2535	WOODHILL	150.6777559	-34.72925727
NSW	loca8933d0ea95b	2340	NORTH TAMWORTH	150.92851905	-31.06264888
NSW	locaaa6dafd1cc3	2027	POINT PIPER	151.25162925	-33.86737775
NSW	locac610f982ca0	2653	GLENROY	147.88271657	-35.7486
NSW	locacc3da5c6d64	2228	MIRANDA	151.10303163	-34.03301091
NSW	loc73d86491a508	2475	UPPER TOOLOOM	152.37321483	-28.56240876
NSW	loc166c80b5b51c	2753	YARRAMUNDI	150.64518414	-33.63917809
NSW	loc30bd195dd7f1	2541	SOUTH NOWRA	150.59892437	-34.90885788
NSW	loc332bdf538385	2628	BERRIDALE	148.81979556	-36.38343202
NSW	loc334079a84c4a	2257	ETTALONG BEACH	151.3332968	-33.51528057
NSW	loc3390540cc8c3	2283	TORONTO	151.57769756	-33.01539099
NSW	loc3847fe08ec87	2125	WEST PENNANT HILLS	151.03364192	-33.74829877
NSW	loc346ed9eee5a1	2878	MOSSGIEL	144.57687535	-33.31054398
NSW	loc35bf39ad05f4	2170	MOOREBANK	150.93810119	-33.94124028
NSW	loc369be873998e	2227	GYMEA BAY	151.08735185	-34.0498768
NSW	loc38a2e3f5b5e4	2753	AGNES BANKS	150.70272454	-33.62307889
NSW	locb339da9d7632	2318	MEDOWIE	151.88005915	-32.73934448
NSW	locb6f8a547e0b5	2088	MOSMAN	151.2445521	-33.82898433
NSW	locb7425d0ad69a	2285	CAMERON PARK	151.61099737	-32.90370136
NSW	locb84d59622f3a	2321	MORPETH	151.63116069	-32.72980366
NSW	loc9627a0742100	2575	BRAEMAR	150.48217995	-34.42886711
NSW	loc60a0612547f5	2650	DHULURA	147.29801157	-35.01624875
NSW	locf0677e89f190	2289	ADAMSTOWN HEIGHTS	151.71034354	-32.94902698
NSW	locf06c5fa346e5	2669	RANKINS SPRINGS	146.16411902	-33.83660249
NSW	locf1ca4bdaed9c	2111	TENNYSON POINT	151.11684378	-33.83162452
NSW	locf27d731b0255	2290	CHARLESTOWN	151.69385303	-32.96672687
NSW	locf3fefccec914	2470	DYRAABA	152.84853949	-28.77285221
NSW	loc1f3ce7e4a844	2577	MACQUARIE PASS	150.66135179	-34.56239459
NSW	loc1fb9ceb67dd2	2538	WOODSTOCK	150.40777791	-35.35368847
NSW	loc7f9381322885	2726	COONEYS CREEK	148.28831399	-34.7398943
NSW	loc81cf1a3b5b3f	2835	COBAR	145.79188539	-31.4823196
NSW	loc0bbaf3fc26a9	2480	GIRARDS HILL	153.27869204	-28.81773406
NSW	loc1e4d78d54dc9	2581	COLLECTOR	149.41937241	-34.931966
NSW	locf334681f448e	2483	MIDDLE POCKET	153.46814555	-28.48685718
NSW	loc523f22411a91	2534	GERRINGONG	150.82499165	-34.73912645
NSW	loc7bc4d6f71e58	2260	ERINA HEIGHTS	151.40918993	-33.42580939
NSW	loc41f96f0429be	2577	MEDWAY	150.28401075	-34.49184248
NSW	locc6386f5ed78e	2443	WAITUI	152.54282058	-31.68463901
NSW	loced623344c478	2111	HENLEY	151.1367967	-33.84209514
NSW	loc978fa3b8b605	2290	TINGIRA HEIGHTS	151.66677769	-32.99710458
NSW	loc5cc8d07f65d1	2430	RED HEAD	152.53563575	-32.05707769
NSW	locb3ba90d58685	2430	MONDROOK	152.40941151	-31.91017293
NSW	loc8d6105ab5238	2337	DRY CREEK	150.8173998	-31.89141267
NSW	loc6c52f40706e3	2671	ALLEENA	147.13348373	-34.09398285
NSW	loc7d50970b6133	2484	ROUND MOUNTAIN	153.54339668	-28.35637639
NSW	loc403fae8a0b4a	2850	TICHULAR	149.93314798	-32.45036302
NSW	loc9ef5c90367e7	2426	COOPERNOOK	152.61748849	-31.82856085
NSW	loc9f52b3995bb1	2828	BOURBAH	148.16597081	-31.23112391
NSW	locca63d9c28127	2630	BUCKENDERRA	148.71983925	-36.16170963
NSW	loccb5111935a41	2429	KILLAWARRA	152.29243161	-31.89501571
NSW	loc048cdbdb53a2	2460	SOUTHAMPTON	152.89871817	-29.71468894
NSW	loc4d928219cd74	2477	ROUS MILL	153.38221319	-28.87996661
NSW	loc6a17ec9f611c	2820	FARNHAM	149.11606169	-32.84557353
NSW	locd4c3c8459137	2650	BOOROOMA	147.36699366	-35.07110933
NSW	locf88ca687c8bf	2652	URANQUINTY	147.22014922	-35.20230443
NSW	loc6c032bbb5ce5	2440	GLADSTONE	152.96103688	-31.01667937
NSW	locc558c6943e85	2656	OSBORNE	146.73394155	-35.35605809
NSW	loc0370f0f03abb	2790	VALE OF CLWYDD	150.1817753	-33.48666481
NSW	loc35eba4b6931c	2421	PATERSON	151.60407019	-32.59067717
NSW	loc01d74ac3c49f	2321	DUNS CREEK	151.64913159	-32.6150336
NSW	loc7b97020883b4	2483	CRABBES CREEK	153.48404004	-28.46162981
NSW	loc88ee57780ee1	2443	DEAUVILLE	152.79070071	-31.67028071
NSW	loc301216c97545	2488	TANGLEWOOD	153.53492308	-28.3363566
NSW	locfbfb72b5e9ec	2722	GUNDAGAI	148.10369317	-35.04281396
NSW	locbd6e01aefeea	2324	TAHLEE	151.99875924	-32.66000981
NSW	locdbd89484e4ea	2650	TATTON	147.35877185	-35.15971241
NSW	loc49ffdfd7bf81	2680	KOOBA	146.10258801	-34.42543778
NSW	loc912a38e3ceda	2820	CURRA CREEK	148.83926805	-32.67319829
NSW	locd6cbdc4d3b72	2326	LOXFORD	151.48757172	-32.79398781
NSW	loc31e1153e3866	2548	YELLOW PINCH	149.83539908	-36.85820982
NSW	loc65b96c9291a8	2582	MURRUMBATEMAN	149.02912033	-34.97430068
NSW	loc4aa9f80e9524	2110	WOOLWICH	151.17178199	-33.83985727
NSW	locc44954d4e551	2794	WATTAMONDARA	148.59223372	-33.94177939
NSW	loc9c0a49900253	2023	BELLEVUE HILL	151.25562795	-33.88083822
NSW	locd4109c134e74	2828	QUANDA	148.74036262	-31.10235981
NSW	loc09ed4ac03fbb	2644	BOWNA	147.14882556	-35.97620312
NSW	loceae479a1653b	2620	KARABAR	149.23280089	-35.37594061
NSW	locff829fce94fb	2705	MERUNGLE HILL	146.46522715	-34.61490972
NSW	loc625cbeb224b1	2848	KANDOS	149.9706906	-32.86023072
NSW	loc46e6625bb24d	2000	SYDNEY	151.20933768	-33.86883859
NSW	loce56af78e95e7	2460	FORTIS CREEK	152.87303702	-29.47410343
NSW	loc40796915b10d	2620	QUEANBEYAN WEST	149.20703939	-35.35809368
NSW	locd13530b03154	2486	COBAKI	153.45633925	-28.20459465
NSW	locc922168a981c	2460	KYARRAN	152.97488176	-29.59005098
NSW	loc5de06099921c	2430	FAILFORD	152.44169053	-32.09066193
NSW	locf6c5e0dbeec4	2540	GREENWELL POINT	150.73037747	-34.91072054
NSW	loc260f05bb8f1e	2132	CROYDON	151.11548535	-33.88043275
NSW	loc425f0b5fb65c	2350	SAUMAREZ PONDS	151.55676876	-30.50023578
NSW	loc826ac34a5e0a	2570	MOUNT HUNTER	150.61203845	-34.09920998
NSW	loc731d0e22d507	2527	TONGARRA	150.69452914	-34.58243747
NSW	loc6aba0c576ac9	2628	AVONSIDE	148.72039167	-36.3980357
NSW	loc532c5e5eba17	2570	BICKLEY VALE	150.66092647	-34.07849344
NSW	loc33365ab45303	2261	BLUE BAY	151.50056703	-33.35437782
NSW	locc6200c1db988	2138	RHODES	151.08771711	-33.82922329
NSW	loc0442814c414a	2570	THE OAKS	150.56340959	-34.0886956
NSW	loc390f419b79d5	2330	GLENDON	151.28509952	-32.586898
NSW	loca7c57bc46d56	2345	GARTHOWEN	150.90242295	-30.86739726
NSW	locd0336d4828ae	2071	EAST KILLARA	151.18146069	-33.75535103
NSW	loc779f11b3692f	2325	ABERDARE	151.38171867	-32.84104521
NSW	loc1d5ccbe2d371	2360	PARADISE	151.47070141	-29.8894444
NSW	locedcc977db15a	2794	BUMBALDRY	148.41415101	-33.87836099
NSW	loc50034f4c0d8a	2000	THE ROCKS	151.20815657	-33.85945004
NSW	loc84af1d9eb0d8	2550	TARRAGANDA	149.86939841	-36.67227933
NSW	loc291eb469a015	2828	BLACK HOLLOW	148.86615543	-31.1089405
NSW	locdf56573cccd6	2537	MOGENDOURA	150.03260151	-35.85867344
NSW	loca6d234a25371	2422	BACK CREEK	152.05316487	-31.96167384
NSW	locf02541cca43c	2880	BROKEN HILL	141.55287018	-32.32108713
NSW	loc340ebdbbe4e6	2330	ROUGHIT	151.247619	-32.57247738
NSW	loc897ef1e89031	2632	BUKALONG	149.21112025	-36.80141884
NSW	loc8537689afddd	2484	SMITHS CREEK	153.37797848	-28.42770508
NSW	loc57c85e624dec	2477	DALWOOD	153.41260955	-28.89416933
NSW	locf1d82c6fa27d	2877	MOUNT HOPE	145.90882516	-32.76273092
NSW	loc849affdcec04	2030	WATSONS BAY	151.28200904	-33.84079495
NSW	loc462f6df5bccd	2408	NORTH STAR	150.41738445	-28.94194431
NSW	locdb0b087105ac	2259	WALLARAH	151.46057762	-33.22506414
NSW	loc853e6234d020	2454	VALERY	152.96244585	-30.39632043
NSW	loc189518e52d1d	2430	TINONEE	152.40417292	-31.94580194
NSW	loc8be7a53f8058	2715	MUNGO	143.09715594	-33.76000269
NSW	loc16e0aa242032	2420	WALLARINGA	151.67097374	-32.45448698
NSW	loce1e1b8e8a062	2850	MUNGHORN	149.82683181	-32.38227418
NSW	loc844f6830cc60	2665	KAMARAH	146.76328737	-34.35888708
NSW	locbec4c2262af5	2352	MULLA CREEK	151.17780997	-31.14321088
NSW	loc9ad915ef028d	2880	BROUGHAMS GATE	141.25064516	-30.88720348
NSW	loc8b7b242a78ef	2830	GOONOO FOREST	148.88264154	-32.01620654
NSW	locc5f98b25d868	2330	CAMBERWELL	151.08571955	-32.49003851
NSW	loc0644cabf2d74	2234	MENAI	151.0036876	-34.00691014
NSW	loc6a1167270eed	2567	NARELLAN	150.7321752	-34.04274962
NSW	locce25b4ea809c	2330	MOUNT OLIVE	151.22452903	-32.40714842
NSW	locd2b38f6d3ec8	2750	JAMISONTOWN	150.67659863	-33.76787437
NSW	loc6948cb81083b	2218	ALLAWAH	151.1143197	-33.97265714
NSW	loc0db1b3a2e274	2330	CARROWBROOK	151.2947138	-32.29423123
NSW	loc8f353ca97948	2753	RICHMOND LOWLANDS	150.75292518	-33.57902623
NSW	loc7f6eecc14a4b	2756	CUMBERLAND REACH	150.89501334	-33.46473822
NSW	loce7649d59af0a	2083	CHEERO POINT	151.19318713	-33.51092801
NSW	loc27251e144dcd	2422	STRATFORD	151.95475147	-32.11482109
NSW	loc75e7389caf79	2090	CREMORNE POINT	151.22807962	-33.84150022
NSW	locbd433de58ed0	2669	MELBERGEN	146.01030332	-33.74484205
NSW	loc701bff6ba33c	2469	CLEARFIELD	152.91389506	-29.15322214
NSW	loc975100d5cd7c	2338	SCOTTS CREEK	150.9584789	-31.71345587
NSW	locd75d67b269d3	2011	RUSHCUTTERS BAY	151.22800656	-33.87471554
NSW	locb760c7ac4c72	2632	ROCKTON	149.31188072	-37.16319312
NSW	loc0fbbc34b8a3e	2775	LOWER MACDONALD	150.96722938	-33.35933007
NSW	locaedf7a435ee1	2648	PAN BAN	143.20741631	-33.05615233
NSW	locc3dedd7da599	2738	PARINGI	142.39042272	-34.29183819
NSW	locd4d664496ba3	2470	MONGOGARIE	152.89823835	-28.95136854
NSW	loc65552956c4db	2335	STANHOPE	151.40953589	-32.58197769
NSW	locd1a63a986ff1	2484	DUNBIBLE	153.39162499	-28.37781568
NSW	loc03fecd5d7174	2330	SEDGEFIELD	151.23530489	-32.54419915
NSW	locedb9b26d1af2	2340	WALLAMORE	150.8247819	-31.04003317
NSW	loc7bf7bf3023f6	2775	MOGO CREEK	151.06931063	-33.14499515
NSW	locac7097d589e3	2365	THE BASIN	151.2738066	-30.18699211
NSW	loc48a496e90170	2462	ULMARRA	153.05342614	-29.64381815
NSW	locaa51603dfa82	2758	KURRAJONG HEIGHTS	150.61714644	-33.51730719
NSW	loc70134729a301	2278	WAKEFIELD	151.55667727	-32.96885073
NSW	loc26dafc0cefa0	2850	YARRABIN	149.28911513	-32.62764137
NSW	locfb2113be8b28	2729	ADELONG	148.0697653	-35.30663224
NSW	locd92946a0e174	2644	YARARA	147.64888579	-35.72013062
NSW	loce32f01374558	2710	COREE	145.49772463	-35.31273041
NSW	loc9603bc9f6108	2326	BISHOPS BRIDGE	151.47028119	-32.74709911
NSW	loc27e5a17f7647	2460	ELLAND	152.89727965	-29.77420641
NSW	locdd893d2e14fa	2141	ROOKWOOD	151.05576331	-33.87427509
NSW	locf8fe6441e04c	2722	DARBALARA	148.23763517	-35.05997248
NSW	locde2380bf48b2	2720	TUMUT	148.23251057	-35.3207373
NSW	loc61aa49f55f27	2539	FISHERMANS PARADISE	150.44500479	-35.23036112
NSW	loca0035884702e	2581	WOLLOGORANG	149.52383422	-34.86025495
NSW	locbb872b592b8f	2756	PITT TOWN	150.86969623	-33.58295583
NSW	loc21be1b28a167	2799	KINGS PLAINS	149.3268729	-33.49047246
NSW	loc659a1682b721	2229	LILLI PILLI	151.11417355	-34.06898957
NSW	loc5b268191de16	2720	COURAGAGO	148.4926261	-35.10643108
NSW	loc14d47f7361b9	4375	COTTONVALE	151.97195581	-28.52425994
NSW	loc591d8c2b1a7b	2257	KILLCARE HEIGHTS	151.37485058	-33.5227093
NSW	loc46918ff3068a	2795	EVANS PLAINS	149.48248067	-33.46101314
NSW	locf89f2097046b	2632	BIBBENLUKE	149.3131416	-36.81457288
NSW	loc3042c3dc973b	2800	BOREE	148.8446771	-33.2517545
NSW	loc0321447e4aa4	2571	MOWBRAY PARK	150.55019489	-34.1548028
NSW	locb2bf78ea56cb	2486	PIGGABEEN	153.43716761	-28.19816199
NSW	locb2f447c817a4	2390	TURRAWAN	149.88731916	-30.45446947
NSW	locd7072e7fcec5	2388	BOOLCARROLL	149.43180003	-30.04774376
NSW	loc8ec4c43a790a	2448	VALLA	152.9537179	-30.58080848
NSW	loc309ac5d70160	2716	MAIRJIMMY	145.74546224	-35.48197078
NSW	locc83749471d5e	2049	PETERSHAM	151.15503753	-33.8945396
NSW	loc3525c7cbdeec	2463	JAMES CREEK	153.24172831	-29.45381491
NSW	locdb68929beb95	2656	URANGELINE EAST	146.68842001	-35.49479044
NSW	locf617af124e34	2756	UPPER COLO	150.70328405	-33.4135552
NSW	loc6229aecc2409	2259	ROCKY POINT	151.46981572	-33.29341468
NSW	locdc4b0de62c4d	2729	DARLOW	147.96589962	-35.34308916
NSW	locf2b7b7bd8c36	2478	SOUTH BALLINA	153.56824579	-28.88518451
NSW	loc74352378324e	2046	RUSSELL LEA	151.14116752	-33.85885245
NSW	loce7b86f60f9a8	2672	CURLEW WATERS	146.43377682	-33.26186908
NSW	loc20d327824077	2324	LIMEBURNERS CREEK	151.91235445	-32.57948381
NSW	locb1dcca6fb7bc	2717	COOMEALLA	142.09445289	-34.08795291
NSW	loc7ddc5f409b78	2192	BELMORE	151.0894808	-33.91911505
NSW	loccd7e9b108ba6	2756	CLARENDON	150.79112425	-33.61056667
NSW	locf9c73c22a714	2527	ALBION PARK RAIL	150.79487583	-34.56183156
NSW	loca077a38d7019	2622	HEREFORD HALL	149.54547421	-35.77553989
NSW	loc5d065c3b8f7c	2871	CORINELLA	147.53077794	-33.52266637
NSW	loc439875589f6a	2777	SUN VALLEY	150.59685424	-33.7079758
NSW	locb3ea6f4d81b3	2420	MARSHDALE	151.80330195	-32.42228112
NSW	locca04708cc2cd	2850	TWELVE MILE	149.25748642	-32.51184276
NSW	loca81d1c272407	2770	MINCHINBURY	150.82991096	-33.7876166
NSW	loc88a6eaafe343	2829	COMBARA	148.31106234	-31.14916218
NSW	loc47d36ab12ef1	2770	MOUNT DRUITT	150.81581324	-33.76845261
NSW	locc35ce642de65	2283	RYHOPE	151.52823683	-32.99020729
NSW	locafda7d3acaf6	2327	PELAW MAIN	151.48150961	-32.83780064
NSW	locaf8413286dbc	2483	YELGUN	153.498215	-28.47901209
NSW	loc0042a1d97193	2371	WELLINGTON VALE	151.73499629	-29.41459721
NSW	loc008656dc7afc	2372	TIMBARRA	152.23029113	-29.05654621
NSW	loc00c7eab94e27	2557	ROSSMORE	150.77262779	-33.93580901
NSW	loc0112542b2295	2530	MARSHALL MOUNT	150.73092382	-34.54261507
NSW	loc137c7830b293	2653	WESTDALE	147.88370888	-35.56984128
NSW	loc0a5c604dbdbf	2484	BYANGUM	153.36167288	-28.35835988
NSW	loc5a261459ab2f	2470	NORTH CASINO	153.06265486	-28.79851446
NSW	loc8f72c101e4ed	2720	WINDOWIE	148.13557039	-35.36996064
NSW	loc989e9ec4682c	2330	GOULDSVILLE	151.08879276	-32.57951486
NSW	loc3df1f496388d	2259	WYONGAH	151.48668267	-33.27174631
NSW	loc0c6b7d48fb7c	2250	BUCKETTY	151.14406269	-33.10811814
NSW	loc1496a328e9f8	2582	KANGIARA	148.79142407	-34.60441861
NSW	locb13ff57a0df7	2430	OLD BAR	152.56322063	-31.96149315
NSW	loca87786d78483	2420	CAMBRA	151.8649132	-32.45123532
NSW	loc22d3a8d90990	2768	PARKLEA	150.91638196	-33.72509728
NSW	loc43dccdaeba92	2570	ELDERSLIE	150.71475236	-34.05673734
NSW	locbb5a51affed3	2250	UPPER MANGROVE	151.12121907	-33.29095075
NSW	loc4f422be5912d	2790	MCKELLARS PARK	150.15302252	-33.47037865
NSW	loceaef1b3d2cad	2460	WELLS CROSSING	153.02903446	-29.89707961
NSW	loce0533c86dd28	2439	BOBS CREEK	152.75410556	-31.59171816
NSW	locc6aa2d724470	2456	DIRTY CREEK	153.14359227	-29.98903756
NSW	loc092e07cf48db	2790	OAKEY PARK	150.18299473	-33.46430099
NSW	locabc3346c78ec	2852	MEBUL	149.35789288	-32.33519599
NSW	loc01406c326fdf	2566	RABY	150.81748756	-34.01842673
NSW	locd9a9bf3fdd6f	2650	SAN ISIDORE	147.28947592	-35.12474789
NSW	loc25badc870622	2330	SCOTTS FLAT	151.24560543	-32.60359032
NSW	loc8cfa37dfb2fa	2311	MOUNT RIVERS	151.47275742	-32.3657749
NSW	locd15d2b03c332	2446	YARRAS	152.35479124	-31.42978976
NSW	loc2377bdc13ffa	2321	LUSKINTYRE	151.43108519	-32.66306497
NSW	loc84e2fa9d8e80	2462	LAKE HIAWATHA	153.2604921	-29.80257334
NSW	loc63b29ca4ede4	2629	ANGLERS REACH	148.67484599	-36.01117438
NSW	loc14b0e1f70389	2622	NORTHANGERA	149.91172593	-35.46916263
NSW	locb2a9d7ee06e9	2795	NEWBRIDGE	149.37419235	-33.580879
NSW	loc89aba4ec79e1	2400	TULLOONA	150.08430813	-28.90026821
NSW	loca29cf7315328	2365	NEW VALLEY	151.33244869	-30.05577115
NSW	loc12e428a2a0a1	2161	OLD GUILDFORD	150.98395227	-33.86423852
NSW	loc2a5c543a118a	2330	DUNOLLY	151.16957706	-32.55470755
NSW	loc64ad01cfd0a0	2396	KENEBRI	148.96072271	-30.72259721
NSW	loc4cf7db3af353	2536	LONG BEACH	150.22588454	-35.6929185
NSW	loc8365776aa4fd	2486	TERRANORA	153.50629906	-28.23868534
NSW	locbcb476826d35	2530	BROWNSVILLE	150.81133142	-34.48282069
NSW	loc5f6c7a4d6097	2575	RENWICK	150.47356642	-34.4499058
NSW	loc02b6eecf276b	2250	MANGROVE MOUNTAIN	151.18369442	-33.32152879
NSW	loc661b08a07106	2011	ELIZABETH BAY	151.22760492	-33.87145311
NSW	loc65cf92b18724	2196	ROSELANDS	151.07545493	-33.93352865
NSW	loc17b3ad5a7677	2009	PYRMONT	151.19348379	-33.86914954
NSW	loc74fe90cac852	2323	MOUNT VINCENT	151.47509917	-32.93005191
NSW	locccc513383791	2877	BOONA MOUNT	147.25964821	-32.61702004
NSW	loc815870001fd7	2398	GURLEY	149.81972443	-29.73213274
NSW	loc6d2b9fdc674b	2720	MINJARY	148.14102041	-35.21811206
NSW	loce114925c12a9	2800	WALDEGRAVE	149.04826266	-33.43794565
NSW	loc4fc200708e5d	2880	MUTAWINTJI	142.38632163	-31.12212253
NSW	loca2cad3cbe71e	2320	GLEN OAK	151.70805509	-32.60566329
NSW	loc4fb7fb6a1d66	2536	SURF BEACH	150.20358491	-35.76227249
NSW	loc24f29539933f	2330	DYRRING	151.2358273	-32.4969
NSW	loc2f1d9edec2f4	2066	LONGUEVILLE	151.16888769	-33.82930064
NSW	loc7e7f8ab221da	2365	LLANGOTHLIN	151.68603045	-30.10306726
NSW	loc2a287f064014	2140	HOMEBUSH WEST	151.06787103	-33.86239635
NSW	locba84e521881b	2008	CHIPPENDALE	151.19965263	-33.88637141
NSW	loc2d88c4cc44c1	2540	BEWONG	150.53348017	-35.0789357
NSW	loc4002ed3ae648	2646	LOWESDALE	146.33686315	-35.84296802
NSW	loca1871598e793	2580	CURRAWEELA	149.78746959	-34.24295157
NSW	loc2e2526e83405	2669	TALLIMBA	146.87601911	-34.04437655
NSW	locac880f4f26e4	2849	DUNGEREE	149.85614606	-32.76620644
NSW	loc402195db1e07	2716	FOUR CORNERS	145.43631471	-34.81955164
NSW	loc84389b522b21	2330	APPLETREE FLAT	150.85379831	-32.51308097
NSW	loc8c6d1763ce60	2460	WARRAGAI CREEK	152.9737373	-29.56296975
NSW	loc78e6ea842692	2850	CUDGEGONG	149.78929515	-32.75950596
NSW	loca179a7d3debc	2460	COLLUM COLLUM	152.47771526	-29.2539352
NSW	loce08c51a5c587	2380	RANGARI	150.41623901	-30.67447235
NSW	loc7461abe1f22e	2648	PINE CAMP	141.22337763	-33.67045292
NSW	locee358276a2d4	2102	WARRIEWOOD	151.29558634	-33.68883951
NSW	loc55a43993c55f	2800	CLERGATE	149.11658851	-33.1830961
NSW	loc7d61ad61cfdc	2880	FOWLERS GAP	141.67877038	-31.36420228
NSW	loc0b6bd3fbe16e	2756	BLIGH PARK	150.79974175	-33.6386178
NSW	loc46f982d14d30	2320	KEINBAH	151.40801525	-32.75463147
NSW	loc20f84b9a6b09	2622	KINDERVALE	149.55589102	-35.64431009
NSW	locaec2d7131eab	2624	GUTHEGA	148.38844611	-36.3722091
NSW	locedc7fcd4523f	2624	PERISHER VALLEY	148.38430145	-36.41131764
NSW	loc491f7226b7c2	2298	WARATAH	151.72389509	-32.90491576
NSW	locdb1d52557fbb	2395	WEETALIBA	149.57896513	-31.64346396
NSW	locd5afb5503bdf	2628	HILL TOP	148.69255571	-36.3329762
NSW	locb6bce2c7f5f3	2380	ORANGE GROVE	150.41333633	-30.93661922
NSW	loc4839cdad2d70	2460	WINEGROVE	152.68715371	-29.54802095
NSW	loc81c9ad8c402e	2209	BEVERLY HILLS	151.08031732	-33.94761157
NSW	locc25231152213	2447	WARRELL CREEK	152.90432286	-30.77574222
NSW	locbdffc2f28fa4	2340	OXLEY VALE	150.88475356	-31.05178516
NSW	loc231a1c0679f3	2665	BECTRIC	147.27100032	-34.50345415
NSW	locae6a85b6b094	2027	EDGECLIFF	151.23648713	-33.87937821
NSW	loc7c7ce5fe643e	2108	GREAT MACKEREL BEACH	151.29879904	-33.59158211
NSW	loc3eba372175e4	2477	MEERSCHAUM VALE	153.41379451	-28.92648633
NSW	loc2fd0f72766d4	2530	KANAHOOKA	150.81829289	-34.49331912
NSW	loc12123b750879	2566	BOW BOWING	150.84039258	-34.01650965
NSW	locb10b46055eca	2729	SANDY GULLY	148.03656191	-35.29438532
NSW	loc87be7880c955	2324	EAGLETON	151.77609854	-32.69427706
NSW	loc33ec1ad74c84	2171	MIDDLETON GRANGE	150.84276448	-33.91463846
NSW	loc1ce94346065c	2876	GUNNING GAP	147.75093208	-33.23824408
NSW	loc25c4d32cac64	2221	CONNELLS POINT	151.09371673	-33.98774655
NSW	locb54d03b1daa0	2360	BRODIES PLAINS	151.19921359	-29.80982518
NSW	loc66615337a2f3	2360	AUBURN VALE	151.04019451	-29.83485296
NSW	loce20dfbe7b33e	2370	KINGSLAND	151.46779084	-29.70220659
NSW	loc2d4848195214	2873	MIAMLEY	146.92804195	-32.40052296
NSW	locb3abd2246125	2470	BACKMEDE	153.0257985	-28.75708431
NSW	loceeca6044bf31	2430	CROKI	152.59309433	-31.87374811
NSW	locab7a1c759a12	2460	CARRS CREEK	152.92282474	-29.65702282
NSW	locdb4537490841	2133	CROYDON PARK	151.10289448	-33.89724408
NSW	loc702081b9c017	2213	EAST HILLS	150.9883006	-33.96089908
NSW	locb74ae4c80e01	2650	MOUNT AUSTIN	147.35564389	-35.13684442
NSW	locbf319e92c78c	2460	LIONSVILLE	152.50233861	-29.18192367
NSW	loc449992ab78dc	2849	GROWEE	150.08222276	-32.64287083
NSW	loc7ed43e17e3f9	2321	WINDERMERE	151.45485499	-32.67672298
NSW	locf75e1b69f509	2545	CADGEE	149.90541876	-36.15835817
NSW	locb048f71c7926	2848	BROGANS CREEK	149.97829717	-32.99097115
NSW	locef473bfce6c1	2665	MIRROOL	147.0644405	-34.23767515
NSW	loca5daa5155377	2365	TUBBAMURRA	151.78377017	-30.10240012
NSW	loca696b6b9534c	2795	MOUNT DAVID	149.60999484	-33.84292241
NSW	locf43b9d9f4240	2439	KENDALL	152.69300088	-31.63676319
NSW	loc06a3e73c0758	2446	PAPPINBARRA	152.47751503	-31.35695561
NSW	loc84cf7f465061	2850	MOOLARBEN	149.77310628	-32.36311086
NSW	loca49ed78d02cf	2340	BARRY	151.28379835	-31.59993685
NSW	loc647c7973b675	2446	KINDEE	152.4337828	-31.39216597
NSW	locc29ea176327a	2430	MITCHELLS ISLAND	152.61786588	-31.90236504
NSW	locc026ae3e6338	2443	WEST HAVEN	152.78392731	-31.63501909
NSW	locbe4e6875b9ea	2256	BLACKWALL	151.33516396	-33.50488322
NSW	locde68e6b19cca	2142	HOLROYD	150.99783602	-33.8297397
NSW	locdb59bdedbdd3	2820	WELLINGTON	148.96110033	-32.56563166
NSW	loc893d6f44bdaf	2716	JERILDERIE	145.75336649	-35.27684104
NSW	loc1c839e876f18	2710	MORAGO	144.71918361	-35.34618801
NSW	locc6939767748c	2016	REDFERN	151.20678301	-33.89311051
NSW	loc4fc9e7148206	2422	COPELAND	151.82566445	-31.97844304
NSW	loc01534aad5e22	2325	NULKABA	151.36102913	-32.80192347
NSW	loc1da2617dbb74	2850	CAERLEON	149.55014456	-32.57792107
NSW	loc428f031f8b87	2722	SOUTH GUNDAGAI	148.13076517	-35.12338485
NSW	loca48a2ef16b30	2484	CHOWAN CREEK	153.37397776	-28.4537662
NSW	loc85c2d66c6142	2146	TOONGABBIE	150.94858146	-33.79033148
NSW	loca5d46d6fcc9c	2420	MUNNI	151.67102633	-32.31796044
NSW	locaccd023be7a4	2330	MCDOUGALLS HILL	151.14643255	-32.54554476
NSW	loce4838c21f24b	2784	BULLABURRA	150.41767605	-33.72921518
NSW	loc50d5c9823079	2357	GOWANG	149.07430979	-31.42597643
NSW	loc7ad18c679859	2066	NORTHWOOD	151.17835838	-33.82828713
NSW	loc1ae1ed606e43	4380	AMOSFIELD	152.05798228	-28.65835161
NSW	locbd5b26473a93	2372	DUMARESQ VALLEY	151.48485493	-29.17225911
NSW	loc4d1a63c385bc	2450	BOAMBEE	153.05600225	-30.33393996
NSW	loc8923ac2bc0ab	2142	ROSEHILL	151.03107814	-33.82574577
NSW	loc898620752271	2515	CLIFTON	150.96818287	-34.258345
NSW	loc898c055ba205	2480	MCLEANS RIDGES	153.39369854	-28.79068
NSW	loc8acf9766a038	2460	WHITEMAN CREEK	152.85503702	-29.56484811
NSW	loca13efe9f187d	2096	QUEENSCLIFF	151.28540806	-33.78288124
NSW	loca1c6d98af7d6	2480	ELTHAM	153.41129858	-28.76073136
NSW	loca22606b8c957	2474	LYNCHS CREEK	152.99217104	-28.45781457
NSW	loca27ba9d8b32e	2352	TINTINHULL	150.99831846	-31.07578175
NSW	loca28d2993379c	2620	WAMBOIN	149.33293008	-35.25079211
NSW	loc99b0ec81b47d	2263	GOROKAN	151.50599625	-33.25491215
NSW	loc9d4de0bd765e	2810	CARAGABAL	147.67654154	-33.83409618
NSW	loc648541ee83be	2319	MALLABULA	152.01336739	-32.73277463
NSW	loc5bf3eec78afb	2021	MOORE PARK	151.22153556	-33.89533143
NSW	loc5c7d2c5dc69b	2470	LEEVILLE	152.99561186	-28.95607299
NSW	loc5c925f33e555	2828	GULARGAMBONE	148.49854192	-31.28946209
NSW	loc5c96453859d3	2350	THALGARRAH	151.87033666	-30.40872447
NSW	loc5ca4e0641cce	2429	WINGHAM	152.35579036	-31.85807707
NSW	loc5d3211b7933b	2720	WEREBOLDERA	148.21992583	-35.38787468
NSW	loc9a3447013feb	2575	BALACLAVA	150.48325417	-34.44020213
NSW	loc95e7e669ea20	2365	FALCONER	151.7337904	-30.16947179
NSW	loc9621c336c942	2372	ROCKY RIVER	152.30688137	-29.18542545
NSW	loc8a517388868c	2020	MASCOT	151.18238468	-33.9405189
NSW	locfe9bb8d97974	2850	AVISFORD	149.48078437	-32.74842031
NSW	locfebd007b65c9	2765	NELSON	150.92137837	-33.64627685
NSW	loc92cd87112ce0	2763	ACACIA GARDENS	150.91379428	-33.73350269
NSW	locad54625d3d28	2580	MUMMEL	149.5663474	-34.66298819
NSW	locadfae48a0fff	2577	BERRIMA	150.33279876	-34.47207756
NSW	locaeac3e4533c8	2337	GUNDY	150.9836501	-31.99620871
NSW	loc7e3b7f9b47c8	2280	CROUDACE BAY	151.6482389	-33.0047882
NSW	loc72b1dcf77720	2067	CHATSWOOD	151.18112302	-33.79625028
NSW	loc98c22f93694d	2642	WRATHALL	146.89071954	-35.36398051
NSW	loc98e9926a4e25	2410	TWIN RIVERS	150.68841826	-28.70519737
NSW	loc5f7f622fc238	2105	MCCARRS CREEK	151.27611412	-33.6434008
NSW	loc956eb929dcf3	2879	MENINDEE	142.71954914	-32.44149808
NSW	loc5bcab67199de	2580	BAW BAW	149.63851223	-34.71903062
NSW	loce6319bc2e26b	2320	ANAMBAH	151.49505033	-32.67918769
NSW	loc346ea4f91920	2548	BOURNDA	149.88315801	-36.814403
NSW	loc520848f8eea4	2261	BERKELEY VALE	151.4334809	-33.33900425
NSW	loc7002404c8c98	2538	MILTON	150.43906756	-35.31935686
NSW	loc666bd3f94738	2232	KIRRAWEE	151.07331212	-34.03298436
NSW	loc73b4d9c1d451	2535	BUDDEROO	150.66478568	-34.67341823
NSW	loc3171547a9337	2200	BANKSTOWN	151.03182908	-33.9204904
NSW	loccaae8b08c49e	2765	BOX HILL	150.89721886	-33.65311157
NSW	loc96348326cde2	2580	GOULBURN	149.7277502	-34.74790552
NSW	loc12e073817182	2471	CODRINGTON	153.23951455	-28.95735655
NSW	loc130915179ca1	2775	PERRYS CROSSING	150.97838193	-33.16399456
NSW	loc13276cfadc76	2756	SOUTH MAROOTA	150.95499753	-33.51104756
NSW	loc13794a9007c0	2287	ELERMORE VALE	151.66005568	-32.91721128
NSW	loc13e36c67295d	2233	WATERFALL	150.99157622	-34.12765597
NSW	locc8be704a7d72	2352	KOOTINGAL	151.05844977	-31.05975267
NSW	locc9db2ddab071	2822	BALLADORAN	148.54409595	-31.87726628
NSW	locf6c8f9e356e0	2469	GOODWOOD ISLAND	153.30779076	-29.3807676
NSW	locf6da93c34026	2630	BOBUNDARA	148.97449626	-36.46151731
NSW	locf6e5d5d0c54a	2580	WINDELLAMA	149.91374808	-35.01377798
NSW	locf7185ae0c132	2620	BURRA	149.22353574	-35.55936156
NSW	locf7386b86a7b7	2648	MOORARA	142.65312502	-33.02879335
NSW	locf87b37d3239a	2330	GLENDON BROOK	151.40826971	-32.48894003
NSW	locf8826a0fad69	2066	LINLEY POINT	151.14938304	-33.82730209
NSW	loc3a8d67e7bf3c	2145	WENTWORTHVILLE	150.9700897	-33.80730149
NSW	loc26b321fc496d	2800	BORENORE	148.96031354	-33.23359773
NSW	loc5dbe5204cd11	2171	CECIL HILLS	150.84185023	-33.88651335
NSW	loc1c72ed2e0308	2449	TEWINGA	152.90257962	-30.64438497
NSW	loc74781b199623	2850	HILL END	149.44654065	-33.02597878
NSW	locf4e41fdfa6f0	2652	OLD JUNEE	147.49532215	-34.81498906
NSW	loc24bfb86b3aa7	2303	HAMILTON SOUTH	151.74791415	-32.93350112
NSW	loc976945faf0b7	2304	MAYFIELD WEST	151.72462255	-32.88495798
NSW	loc20fdd1da9cba	2747	LLANDILO	150.74956088	-33.70193796
NSW	loc766ecae2c8d1	2388	THE PILLIGA	149.46217119	-30.68125478
NSW	locea7cb4b7a8f5	2577	KANGAROO VALLEY	150.47826501	-34.73446395
NSW	loca386036df867	2122	MARSFIELD	151.10484907	-33.77575661
NSW	loca3c4951458c1	2422	WARDS RIVER	151.93903106	-32.20775701
NSW	loccb67c6141eb5	2068	MIDDLE COVE	151.21203033	-33.79259221
NSW	loccb870101424b	2508	OTFORD	151.0023783	-34.20684753
NSW	loccc5127875b9a	2446	BAGO	152.66717429	-31.5117278
NSW	locc06e60182d3a	2250	WENDOREE PARK	151.16173671	-33.45549695
NSW	loc3f9afcbe124e	2619	JERRABOMBERRA	149.20124081	-35.3833533
NSW	loc91559a230aea	2204	MARRICKVILLE	151.15546451	-33.91114736
NSW	loc915e533dda35	2261	CHITTAWAY POINT	151.44506143	-33.32160059
NSW	loc9165d2952299	2077	ASQUITH	151.11635363	-33.68713644
NSW	loc919db37cfce4	2469	LOWER BOTTLE CREEK	152.60401155	-28.81813256
NSW	locaa635903fed7	2652	MATONG	146.91123029	-34.76296486
NSW	locaa93f31aa088	2622	TIANJARA	150.31477119	-35.14019437
NSW	locaaf47adb739a	2871	WARROO	147.54218376	-33.33889841
NSW	locaaf718f5df2a	2795	BREWONGLE	149.68997069	-33.4744507
NSW	locabab1306270c	2441	ROLLANDS PLAINS	152.65777908	-31.28660338
NSW	locabf176263450	2035	MAROUBRA	151.24455428	-33.94403349
NSW	loc9de1bae43caf	2880	TIBOOBURRA	141.98350361	-29.3642838
NSW	loca91534172581	2577	PADDYS RIVER	150.12700847	-34.62760598
NSW	locb0bb5dd84af7	2765	OAKVILLE	150.87358187	-33.6227062
NSW	locb16bfbbc1108	2381	PREMER	149.92403122	-31.47381787
NSW	locaeed1e0ea477	2324	SEAHAM	151.70680385	-32.6714793
NSW	locdaad49f800e2	2259	HAMLYN TERRACE	151.47087509	-33.25407366
NSW	loc06f6003cb0a3	2311	ECCLESTON	151.48478087	-32.25580013
NSW	loc075d3b3bde1e	2460	LANITZA	152.97908538	-29.88102291
NSW	loc0869aa795780	2472	THE GAP	153.38227499	-29.16961264
NSW	loc0ec8efb43f76	2287	WALLSEND	151.66094733	-32.89951316
NSW	locbca9541ce2e7	2460	BRAUNSTONE	152.94986793	-29.81433748
NSW	locbcd7ad5eafa5	2299	NORTH LAMBTON	151.70431681	-32.90395019
NSW	locbd95d21bcb21	2251	DAVISTOWN	151.36134834	-33.48509902
NSW	locbdc0307402a5	2343	BUNDELLA	149.98259517	-31.63292175
NSW	locbe02fc91211d	2477	PEARCES CREEK	153.44800334	-28.77201159
NSW	locb1500a52b816	2550	COBARGO	149.87830144	-36.389662
NSW	locb44d2b802bb1	2320	MOUNT DEE	151.53960177	-32.74205391
NSW	locb5b9acbdb8b7	2756	MAROOTA	150.98238983	-33.46175674
NSW	loc11d1674e6fe1	2287	MINMI	151.62023126	-32.87715166
NSW	loc14969379fd23	2849	BYLONG	150.1213312	-32.40443642
NSW	loc14c47dc9ac84	2347	GUNDAMULDA	150.7158569	-30.24946252
NSW	loc14dbe8c05101	2320	MAITLAND	151.54922383	-32.73838618
NSW	loc151abe8d53d4	2730	GREEN HILLS	148.02925281	-35.54627025
NSW	loc15262b2b7925	2453	HERNANI	152.41351017	-30.30932812
NSW	loc469362640ebe	2121	EPPING	151.07628856	-33.77281342
NSW	loc46a306c05c75	2469	RAPPVILLE	152.94834496	-29.06844647
NSW	loc46c1b4f73d64	2765	ANGUS	150.83628995	-33.67958396
NSW	loc46d9659e0268	2550	QUAAMA	149.88621407	-36.46579705
NSW	loc21d683e3841c	2040	LILYFIELD	151.16117169	-33.87107724
NSW	locfba035a5ef9d	2177	BONNYRIGG	150.88896601	-33.89354456
NSW	locf3221c0aeea3	2340	HALLSVILLE	150.87413719	-31.01108174
NSW	locf9390327ef45	2335	BELFORD	151.28805929	-32.66934645
NSW	loce94096f2360a	2319	TANILBA BAY	151.98618647	-32.74245
NSW	locea1344573188	2575	HILL TOP	150.48656612	-34.34686815
NSW	locea67a16a992f	2756	SACKVILLE	150.87768835	-33.49082923
NSW	loceb0c904eb39a	2250	NARARA	151.33533971	-33.39579698
NSW	locb1f8e7a6c860	2114	MELROSE PARK	151.07336	-33.81410998
NSW	loc146df26b9f28	2800	NASHDALE	149.0074733	-33.3030949
NSW	locdf29f7b0e9c1	2168	MILLER	150.87849371	-33.9212648
NSW	locc9cc57ab75bb	2519	FAIRY MEADOW	150.8935538	-34.39364727
NSW	locbdf12b672b31	2441	ALLGOMERA	152.79551359	-30.8181426
NSW	loc29776c2ec92a	2570	ORAN PARK	150.74268336	-33.99254137
NSW	loc9a041145572e	2539	TERMEIL	150.35204383	-35.47674616
NSW	loc17e33633b893	2666	MORANGARELL	147.7142292	-34.17663131
NSW	locd37029edfe71	2447	UTUNGUN	152.8280091	-30.74443979
NSW	loce558ae3add6b	2340	MOORE CREEK	150.94410374	-30.9884561
NSW	loc913c1a8dfe79	2515	COLEDALE	150.94145604	-34.2878984
NSW	loca5a7466bc553	2065	GREENWICH	151.18479388	-33.82931601
NSW	locdfc3eacdd8f5	2576	BOWRAL	150.42446053	-34.4830853
NSW	loc5c1ff8130664	2107	AVALON BEACH	151.32726361	-33.62950728
NSW	loc3154dd0148ba	2727	ADJUNGBILLY	148.4404648	-35.04147263
NSW	loc409ecbedf4ca	2444	THRUMSTER	152.83783575	-31.45849369
NSW	locfe16b3f275fa	2752	SILVERDALE	150.59171362	-33.92857715
NSW	loc1e2aad75a1a7	2569	DOUGLAS PARK	150.71246723	-34.18828441
NSW	loc8d18ddc6a1b0	2548	TURA BEACH	149.92444478	-36.86038043
NSW	loc9de5d01f424f	2760	OXLEY PARK	150.79528236	-33.77078087
NSW	loc8eb0e18d178c	2580	MOUNT FAIRY	149.60706347	-35.18854523
NSW	loc9138c2055fca	2850	SALLYS FLAT	149.56995543	-33.02843221
NSW	locc2fe8eb000b1	2835	SANDY CREEK	145.43656492	-31.91943155
NSW	locc7311d651111	2386	BURREN JUNCTION	148.86601437	-30.05321063
NSW	locc8e7f5663f74	2795	JEREMY	149.53149034	-33.98538875
NSW	locc8ff13c0bc23	2042	ENMORE	151.17080299	-33.8999844
NSW	loced9e681ae397	2026	NORTH BONDI	151.27838401	-33.88458332
NSW	locee21ec30f992	2775	SPENCER	151.12492245	-33.44415247
NSW	locee518a7ccc8f	2627	CRACKENBACK	148.51153577	-36.44003407
NSW	loc46b489d84334	2529	SHELLHARBOUR CITY CENTRE	150.83722073	-34.5648827
NSW	loc480461164568	2448	VALLA BEACH	153.00775392	-30.58923368
NSW	loc482990ebaf96	2424	KNORRIT FLAT	152.10923912	-31.83548225
NSW	loc230e97dd535c	2230	WOOLOOWARE	151.1405286	-34.04280934
NSW	loc8fd76f88db07	2365	BEN LOMOND	151.65058384	-30.00943122
NSW	loc25a589a4ace3	2795	COPPERHANNIA	149.22133	-33.87691156
NSW	locac77ca6c5ec7	2356	GWABEGAR	148.97604635	-30.56533115
NSW	locac78c8f8e66b	2429	THE BIGHT	152.38530705	-31.88300511
NSW	locac8d8ecbbfa7	2710	BOOROORBAN	144.7926796	-34.85971505
NSW	locaca184c8171a	2720	WERMATONG	148.30462688	-35.37847712
NSW	locd11f2d1daa15	2480	TUCKI TUCKI	153.31697824	-28.92152871
NSW	locd125cac2a3c8	2480	DORROUGHBY	153.35941856	-28.65821097
NSW	locd1ca96b26235	2660	MORVEN	147.15482004	-35.65151055
NSW	loc27b1fc9a3814	2594	WEEDALLION	147.8844335	-34.20067249
NSW	loc28a9acfb29e6	2738	MALLEE	142.53267419	-34.23421196
NSW	loc29110a5093bf	2546	NORTH NAROOMA	150.09928162	-36.209022
NSW	locb19b484f2510	2155	BEAUMONT HILLS	150.94024651	-33.6977586
NSW	locb1d89cb7b478	2650	GREGADOO	147.43102213	-35.23871123
NSW	locb1e9849a4840	2706	DARLINGTON POINT	145.86605018	-34.59572331
NSW	locda2d4f52ae77	2680	BENEREMBAH	145.84525798	-34.43036667
NSW	locda5fb552bbe6	2508	MADDENS PLAINS	150.94589548	-34.25778223
NSW	locda7071ab2f58	2671	BACK CREEK	147.46052181	-33.86445813
NSW	locdb2138be216b	2075	ST IVES	151.17232294	-33.72499872
NSW	locdd745b8e2bb2	2034	SOUTH COOGEE	151.2546664	-33.93245234
NSW	loc0929443e4c33	2795	LOCKSLEY	149.80011667	-33.51382758
NSW	loc35f7346ee9fc	2422	RAWDON VALE	151.71710774	-31.99866075
NSW	loc36302a1cb9be	2466	THE FRESHWATER	153.33125976	-29.34373829
NSW	loc366be113b475	2652	GOOLGOWI	145.73695413	-33.94733995
NSW	loc36f0e10e91ee	2371	TORRINGTON	151.68171858	-29.27669382
NSW	loc373789a13379	2469	GORGE CREEK	152.71593308	-28.73330521
NSW	loc37dbe683a15f	2264	BALCOLYN	151.55199284	-33.0957953
NSW	loc3892c7a2b5b2	2386	DRILDOOL	149.01424342	-30.20788596
NSW	loc3988f8f8091c	2729	YAVEN CREEK	147.94120096	-35.47639749
NSW	loc3a0bf07b23d7	2793	ROSEBERG	149.04984014	-33.855451
NSW	loce4a62b21d643	2086	FRENCHS FOREST	151.22440046	-33.74819139
NSW	loce4c6e87389b5	2441	BARRAGANYATTI	152.92538311	-30.87626857
NSW	loce4caf673cdf6	2710	DENILIQUIN	144.85063305	-35.55444746
NSW	loce4f495301f73	2403	BALFOURS PEAK	150.78375778	-29.46366787
NSW	loce50c2da67cf2	2787	DUCKMALOI	149.95656233	-33.6843698
NSW	loce5828efb751c	2322	HEXHAM	151.67453809	-32.85010842
NSW	loce5a8f94411cc	2424	NUMBER ONE	152.05658807	-31.72095279
NSW	loce5b6ef231a24	2415	NOOROO	151.88218246	-32.37703784
NSW	loce5e12255cfde	2388	MERAH NORTH	149.20607574	-30.18314378
NSW	loce60113e6ac0e	2720	LITTLE RIVER	148.31713714	-35.33792132
NSW	loc747ec8076b44	2142	GRANVILLE	151.00882249	-33.83510794
NSW	loc4639debc4778	2251	KINCUMBER SOUTH	151.37810074	-33.48290365
NSW	locc193924b92ff	2526	KEMBLA HEIGHTS	150.8076648	-34.4288858
NSW	locc23774b2f7b8	2852	GUNTAWANG	149.44690865	-32.40034001
NSW	loc471862bb07bb	2259	WOONGARRAH	151.47836143	-33.23898636
NSW	loc47e14da8755c	2827	BREELONG	148.79489153	-31.81156691
NSW	loc482937c4b79f	2622	WOG WOG	150.05385966	-35.26402742
NSW	loc489bf43b4b7a	2320	TELARAH	151.53609944	-32.73018023
NSW	loc48e2d81723fa	2453	TALLOWWOOD RIDGE	152.72397627	-30.26113759
NSW	loc77f93f9a47da	2404	WHITLOW	150.73549909	-29.89150708
NSW	loc7a23f92d3b78	2044	TEMPE	151.16287382	-33.92488752
NSW	loc5b8720951fea	2036	CHIFLEY	151.23971079	-33.96947346
NSW	loc8e13f62ca167	2650	COOKARDINIA	147.24641331	-35.55348153
NSW	loc8e901ea41ea3	2651	FOREST HILL	147.46521284	-35.15129913
NSW	loc8eb7c82c5a03	2630	PEAK VIEW	149.39946899	-36.03165044
NSW	loc8ee5f94a44b8	2441	KUNDABUNG	152.820742	-31.20045352
NSW	loc9044089fffeb	2703	YANCO	146.40194127	-34.62477062
NSW	loc909b000858ec	2159	BERRILEE	151.10499339	-33.61026235
NSW	loc3a5878b0d231	2447	NEWEE CREEK	152.92734606	-30.63158749
NSW	loc1e24228ac15b	2715	BALRANALD	143.41722453	-34.3327977
NSW	locd0e9494ebded	2539	LAKE CONJOLA	150.46973939	-35.271271
NSW	locb18b44e7be76	2261	GLENNING VALLEY	151.42186165	-33.35218308
NSW	loc938fde5591cf	2760	COLYTON	150.79688447	-33.78287342
NSW	locda25223d0cf2	2535	WATTAMOLLA	150.63419182	-34.72505138
NSW	locabfdb462117b	2430	BRIMBIN	152.47229703	-31.85060083
NSW	loc88738565a906	2112	PUTNEY	151.10641942	-33.82619105
NSW	loc1c86a4fdabc9	2519	BALGOWNIE	150.87126101	-34.38646805
NSW	loca3b1a547cd1b	2292	BROADMEADOW	151.73318363	-32.92468803
NSW	loc2fae54f994a0	2446	LAKE INNES	152.82812118	-31.50332871
NSW	locf4623fd95a10	2041	BALMAIN	151.1798746	-33.85817941
NSW	locf0717a882fe5	2205	WOLLI CREEK	151.15288577	-33.93148473
NSW	locef6c0086a731	2868	OBLEY	148.4642484	-32.69190347
NSW	loc70a21084fd9e	2106	NEWPORT	151.31523856	-33.65658315
NSW	loc511bc669dd79	2560	KENTLYN	150.86603241	-34.06097151
NSW	loc53dc4051d74d	2350	DUMARESQ	151.54094163	-30.4224843
NSW	loc877e132707eb	2582	YASS	148.91420883	-34.82563339
NSW	locc723a29f7f84	2829	URAWILKIE	148.73056909	-30.69446548
NSW	locf2e137b7142a	2849	GINGHI	150.04963371	-32.59052776
NSW	loc557feaf08226	2463	MACLEAN	153.21475051	-29.4485915
NSW	loca6db7e11cc5f	2065	CROWS NEST	151.20365425	-33.82577516
NSW	loc202e71a7778d	2315	SHOAL BAY	152.17500759	-32.72572274
NSW	loc2059a2c2b842	2790	GOOD FOREST	150.11079895	-33.58751327
NSW	locff698c2dc855	2790	LITHGOW	150.15702296	-33.48272179
NSW	locffcca8c4be71	2620	CLEAR RANGE	149.11615579	-35.69974812
NSW	locfeefa711a99f	2721	BLAND	147.63469131	-34.01125302
NSW	locf9c671a1a135	2583	CROOKWELL	149.45736149	-34.45326114
NSW	locf9fdee518f20	2820	MOOKERAWA	149.16630538	-32.79211924
NSW	locfe5fdc2c5ffb	2579	PENROSE	150.2117028	-34.66376717
NSW	loc1aa786317d83	2138	LIBERTY GROVE	151.08392037	-33.84120484
NSW	loc1e1e04305706	2787	MOUNT WERONG	149.9450653	-34.09164951
NSW	loc1e2ce807ad82	2583	LAGGAN	149.56284428	-34.34917165
NSW	loc29d7c0ded498	2820	YARRAGAL	149.10505889	-32.59640514
NSW	loc5dfdd9bdd55a	2820	MOUNT ARTHUR	148.90001324	-32.55139024
NSW	loc5e30a419f194	2476	WOODENBONG	152.58992235	-28.37143565
NSW	loc5edfd394d3e1	2831	NYMAGEE	146.07469318	-32.13705743
NSW	loc5f3ba808cdaa	2430	RAINBOW FLAT	152.48871688	-32.03220824
NSW	loc5f76c7e750c9	2428	SMITHS LAKE	152.49229914	-32.38149657
NSW	locdb9a7874e8f0	2462	SWAN CREEK	153.00200961	-29.66928826
NSW	locdbd1f92b2466	2628	SNOWY PLAIN	148.5221546	-36.15195015
NSW	locdc11c70e572b	2735	KORALEIGH	143.44047772	-35.12855727
NSW	loca27adcd991cb	2137	MORTLAKE	151.10614163	-33.84095476
NSW	loce44bed5a93b3	2828	MOUNT TENANDRA	148.76499097	-31.20028331
NSW	loc3ab32f3fd945	2474	TOONUMBAR	152.76100839	-28.52970887
NSW	loc3b56401889ed	2148	KINGS PARK	150.90778533	-33.74349401
NSW	loc6ccaa8b77e9c	2825	MIANDETTA	146.92159025	-31.58652231
NSW	loc680672f8cf29	2323	RICHMOND VALE	151.49718842	-32.86515367
NSW	loc74f8e9178b48	2622	WARRI	149.67838148	-35.32724658
NSW	loc5560df1ac440	2322	BERESFIELD	151.64073375	-32.80354701
NSW	loc56c2712d9100	2850	AARONS PASS	149.8029169	-32.87909685
NSW	loc57f009b44b2c	2138	CONCORD WEST	151.09102724	-33.84354268
NSW	loc8bfe5e12fbd4	2096	CURL CURL	151.28968149	-33.76909684
NSW	loc1869ba43e508	2335	ELDERSLIE	151.35066746	-32.58201236
NSW	loc84d8ae41228b	2166	LANSVALE	150.96335857	-33.90401396
NSW	loc7b7acbcf1ef8	2622	NERRIGA	150.0699272	-35.09671852
NSW	loc7c370b62742f	2010	DARLINGHURST	151.21946667	-33.87790144
NSW	loc9e0c7b3ad507	2360	INVERELL	151.11028761	-29.76273925
NSW	loc9e21a918e190	2480	TUNTABLE CREEK	153.26222611	-28.62917137
NSW	loc9e279591e3e6	2632	BOMBALA	149.24449669	-36.88598115
NSW	loc9e2f150fb5ef	2540	TOMERONG	150.56988357	-35.05105853
NSW	loca779dc7a9ba2	2118	CARLINGFORD	151.04532444	-33.77563073
NSW	locf90ed5f81ec0	2650	YATHELLA	147.42649926	-34.91650044
NSW	locd222fd25ba35	2745	MULGOA	150.64300766	-33.8268977
NSW	loc14a51e1d2d53	2550	WYNDHAM	149.63291737	-36.92254083
NSW	loc64cb0968ba03	2515	AUSTINMER	150.92925905	-34.30174234
NSW	loc948188510718	2580	TARAGO	149.55832213	-35.10749086
NSW	loc22a73fe48374	2116	RYDALMERE	151.0409532	-33.81270221
NSW	loc472fbd6ff1f8	2727	GOBARRALONG	148.35561478	-34.95204478
NSW	loccf3ead73de27	2770	SHALVEY	150.8066999	-33.72754366
NSW	loc20d76a221238	2823	GIN GIN	148.09158299	-31.90044816
NSW	loc216d45cf019d	2230	BURRANEER	151.13851509	-34.06427051
NSW	loc2187de72caa8	2024	BRONTE	151.26401947	-33.90411959
NSW	loc239c45def021	2579	WINGELLO	150.17915908	-34.70069296
NSW	loc23e6fc857c4f	2795	WHITE ROCK	149.61729168	-33.46530212
NSW	loc5871f767c76f	2440	VERGES CREEK	152.89746669	-31.08677103
NSW	loc5157e59d1034	2575	WATTLE RIDGE	150.4274097	-34.28319058
NSW	loc515f87465e20	2738	TRENTHAM CLIFFS	142.26005759	-34.24341114
NSW	loc5c16eed2a92f	2320	WINDELLA	151.47906061	-32.69166835
NSW	loc932f90d2089e	2425	WASHPOOL	151.9205915	-32.36949457
NSW	loc9341e4b02c0b	2765	RICHARDS	150.84877455	-33.66418075
NSW	loc941bc48601fc	2777	VALLEY HEIGHTS	150.5844591	-33.70996769
NSW	locd3dfc933af98	2795	PALING YARDS	149.74386191	-33.18279696
NSW	loc48efc7ee6e9e	2795	ORTON PARK	149.57299763	-33.46851034
NSW	loc6dc40325fe0a	2446	ROSEWOOD	152.68551716	-31.45760805
NSW	loc6e061ddbbfdf	2581	BREADALBANE	149.44751866	-34.79838452
NSW	loc8c762b7ebe49	2347	RED HILL	150.63411843	-30.49369946
NSW	loc0fd9d8e47657	2539	KIOLOA	150.37425834	-35.54860414
NSW	loc1049bbed1c4d	2084	TERREY HILLS	151.21937438	-33.68945119
NSW	loc1062768cfc1c	2791	CARCOAR	149.13602256	-33.61662918
NSW	loc107276c7de10	2628	COOTRALANTRA	148.85610756	-36.28764065
NSW	loc11d59a44343d	2829	CONIMBIA	147.99498805	-30.66648898
NSW	loc12773c14d3c1	2753	BOWEN MOUNTAIN	150.61993691	-33.57624886
NSW	loc128e41968900	2630	GLEN FERGUS	149.24738252	-36.21529888
NSW	loc12cde763e1f0	2549	MILLINGANDI	149.85688771	-36.88699363
NSW	loc9e97687a557a	2795	MOUNT RANKIN	149.48366535	-33.29547531
NSW	locc56dd0a30bc5	2446	PEMBROOKE	152.7511966	-31.37396903
NSW	locf1efd5c79980	2422	BELBORA	152.16918951	-31.98412426
NSW	locc7c13c543ee7	2508	WORONORA DAM	150.93544005	-34.16314202
NSW	locf95438e4a935	2850	BOTOBOLAR	149.82233385	-32.52635508
NSW	locf50798ab7992	2453	TYRINGHAM	152.51296854	-30.24721548
NSW	loc4cfee01420ff	2630	TUROSS	149.47330147	-36.27550655
NSW	locca9a3d977697	2587	BEGGAN BEGGAN	148.29267661	-34.64537112
NSW	locc4be85633c83	2321	LOCHINVAR	151.45216884	-32.7119122
NSW	locc51d110c9fbf	2710	CALDWELL	144.51330069	-35.58322042
NSW	locc525cc4428f4	2759	ERSKINE PARK	150.7977707	-33.81299055
NSW	locc53301563bf8	2594	BERTHONG	148.09553246	-34.38896831
NSW	locc54565b7064d	2756	MELLONG	150.74125467	-33.11079338
NSW	locc55e8b323d6a	2176	BOSSLEY PARK	150.88403074	-33.86193826
NSW	loc2c3740334a48	2443	LAURIETON	152.79520254	-31.64439227
NSW	loc09c8d24d72b2	2640	SPLITTERS CREEK	146.84979494	-36.05280885
NSW	loc09c8e8ba2a96	2173	WATTLE GROVE	150.94009386	-33.95316228
NSW	loc379d1ab4207e	2387	BULYEROI	149.18221138	-29.79569085
NSW	loc398d48be5131	2474	CEDAR POINT	153.00218672	-28.69014672
NSW	loc3a4192af5d49	2357	ULAMAMBRI	149.44093303	-31.32717433
NSW	loc69c2c815c458	2460	DALMORTON	152.45915663	-29.80142396
NSW	locbe6b1955f2a2	2540	ORIENT POINT	150.74520814	-34.91119337
NSW	loc0e8246903425	2745	WALLACIA	150.64370771	-33.88398662
NSW	loc81001f099486	2571	WILTON	150.68562135	-34.26596143
NSW	loc94c26d14de0a	2650	HAREFIELD	147.55379291	-34.9769016
NSW	loc5ed301491ae2	2447	YARRANBELLA	152.76862447	-30.72461362
NSW	locd16a0e11ef7e	2105	PITTWATER	151.28978645	-33.60537032
NSW	loc46b0c9670e82	2212	REVESBY	151.01322282	-33.9463871
NSW	loc5886813bf244	2453	BOSTOBRICK	152.6019507	-30.27935404
NSW	loc58eaa84b53b9	2628	NIMMO	148.62762986	-36.17871221
NSW	loc590c53f3406a	2705	MURRAMI	146.26111715	-34.40707562
NSW	loc5a0c2673e9ff	2423	COOLONGOLOOK	152.32075631	-32.22340141
NSW	loc5a1ea22fdf50	2422	TERREEL	152.04431732	-32.22047936
NSW	loc5a4cd11021e1	2025	WOOLLAHRA	151.24379537	-33.88690686
NSW	loc5a5dffa2e52e	2429	KRAMBACH	152.26368786	-32.03851632
NSW	loc5a7a7efff81a	2850	HAYES GAP	149.73421386	-32.56396494
NSW	loc5b1e0b89e3c7	2354	WALCHA ROAD	151.42100488	-30.92686336
NSW	loc5b66bdef6140	2463	BROOMS HEAD	153.29117301	-29.61898845
NSW	loc8c9272a290d6	2036	LITTLE BAY	151.24588835	-33.98273569
NSW	loc30171ef2b45c	2422	TIBBUC	151.9038234	-31.83432225
NSW	loc9489dee5406f	2795	SOFALA	149.70007392	-33.05882462
NSW	loc950310dd8b96	2446	RAWDON ISLAND	152.78381203	-31.41904635
NSW	loc950723dca6e7	2474	CAWONGLA	153.09027947	-28.60285358
NSW	locafcdd9d536c7	2484	NUNDERI	153.45968916	-28.32207049
NSW	locb02fde8c1424	2084	DUFFYS FOREST	151.18966893	-33.67375403
NSW	locb04372790777	2264	MANDALONG	151.42236582	-33.12875921
NSW	locb058c72efdd0	2806	EUGOWRA	148.3531137	-33.41111647
NSW	loc81f2525d56e5	2358	BALALA	151.29912862	-30.62031081
NSW	loc05b23915dff6	2443	LAKEWOOD	152.76556094	-31.63497562
NSW	loc326341fa51bb	2581	BIALA	149.26054635	-34.59579971
NSW	loc32720248a30d	2476	LINDESAY CREEK	152.63708122	-28.33434213
NSW	loc32c24146a696	2330	WHITTINGHAM	151.21381627	-32.61686983
NSW	loc9875eb59c846	2565	INGLEBURN	150.86328104	-34.00453994
NSW	locb8942a3491bb	2259	DOORALONG	151.36760354	-33.17560747
NSW	locb9485188dc96	2333	WYBONG	150.65553406	-32.27161969
NSW	locb94cfc6e2406	2790	LOWTHER	150.11143454	-33.62190009
NSW	locb965177613b7	2340	LOOMBERAH	151.0188283	-31.28290894
NSW	locba03863ff52d	2850	BUDGEE BUDGEE	149.66446019	-32.5176689
NSW	locba5b19011ddd	2540	TAPITALLEE	150.51471694	-34.82802133
NSW	locba94cbbee3e5	2540	YALWAL	150.36148921	-34.95624795
NSW	locbb434919d55e	2300	NEWCASTLE	151.77877748	-32.92637536
NSW	locbb4fda646f87	2401	GRAVESEND	150.32814452	-29.63271196
NSW	locbb9fa556dcd2	2469	MUMMULGUM	152.79165881	-28.87012992
NSW	locbbb61158aea8	2707	COLEAMBALLY	145.85807539	-34.79246443
NSW	locbbcc1eab755c	2446	WAUCHOPE	152.73252475	-31.47206108
NSW	locbbfa42b8be8d	2850	WOLLAR	149.97931981	-32.36461389
NSW	locd5c69246ede0	2713	BLIGHTY	145.31105352	-35.59935434
NSW	loc5f37c3fa6d5a	2099	DEE WHY	151.28974493	-33.7519063
NSW	loc43ea2d4820ed	2422	CRAVEN	151.89734692	-32.14298076
NSW	loc44bc3c81c83c	2630	BILLILINGRA	149.11453852	-36.01939698
NSW	loc44c695fd6670	2795	BILLYWILLINGA	149.44070956	-33.28426705
NSW	loc44e51dc117ed	2528	BARRACK HEIGHTS	150.85446811	-34.56315062
NSW	loc450ed6b99a85	2540	WANDANDIAN	150.49703344	-35.08264229
NSW	loc45c58c033738	2652	GUMLY GUMLY	147.43179055	-35.13204891
NSW	loc4634c89479b5	2850	WINDEYER	149.57146229	-32.79976508
NSW	loc4653b2df7b6d	2325	LOVEDALE	151.36422668	-32.75328186
NSW	loc4656d584ca95	2537	MOSSY POINT	150.17758379	-35.8315952
NSW	loc77d728f17869	2548	MERIMBULA	149.89804197	-36.89269688
NSW	loc782c3a098e74	2795	TRUNKEY CREEK	149.33756495	-33.80058348
NSW	locc5835aaab918	2540	BREAM BEACH	150.66158273	-35.10919898
NSW	locc65bafccc882	2632	MILA	149.15987132	-37.04981445
NSW	locc6ac7bccb61e	2535	SHOALHAVEN HEADS	150.74157117	-34.85021182
